shelter_name,shelter_id,bundesland,bez,gen,latitude,longitude,Aufnahme möglich für Frauen mit bis zu einem Kind,Aufnahme möglich für Frauen mit mehreren Kindern,Aufnahme möglich ohne detaillierte Angabe,Keine Aufnahme möglich,Platz für Frauen ohne Kinder,keine Angabe
1. &amp 3. Hamburger Frauenhaus,2382,Hamburg,Kreisfreie Stadt,Hamburg,53.5528284,9.9966396,0.0,0.0,0.01618705035971223,0.0,0.0,0.9838129496402878
1. Autonomes Frauenhaus,2027,Sachsen,Kreisfreie Stadt,Leipzig,51.325187635158,12.373901299377,0.1357913669064748,0.0,0.0,0.24280575539568344,0.6214028776978417,0.0
1. Frauenhaus Köln,2140,Nordrhein-Westfalen,Kreisfreie Stadt,Köln,50.933466575848,6.998637825656,0.008992805755395683,0.0035971223021582736,0.0008992805755395684,0.9838129496402878,0.002697841726618705,0.0
2. Autonomes Frauenhaus Berlin,2274,Berlin,Kreisfreie Stadt,Berlin,52.516226925016,13.377744825842,0.0,0.0,0.0,0.0,0.0,1.0
2. Autonomes Frauenhaus Köln,2253,Nordrhein-Westfalen,Kreisfreie Stadt,Köln,50.921396360676,6.995416051662,0.0017985611510791368,0.01079136690647482,0.0,0.9820143884892086,0.00539568345323741,0.0
2. Hamburger Frauenhaus e.V.,2367,Hamburg,Kreisfreie Stadt,Hamburg,53.541814575369,9.998572209518,0.0,0.0,0.0,0.0,0.0,1.0
24/7 Notaufnahme der Hamburger Frauenhäuser,2039,Hamburg,Kreisfreie Stadt,Hamburg,53.554448,9.991344,0.0,0.0,0.0,0.0,0.0,1.0
4. Frauen*- und Kinderschutzhaus Leipzig,2317,Sachsen,Kreisfreie Stadt,Leipzig,51.3406321,12.3747329,0.0539568345323741,0.18345323741007194,0.0,0.6097122302158273,0.1528776978417266,0.0
6. Autonomes Frauenhaus Hamburg,2381,Hamburg,Kreisfreie Stadt,Hamburg,53.5528284,9.9966396,0.0,0.0,0.0,0.0,0.0,1.0
AWO Frauenhaus,2297,Niedersachsen,Landkreis,Region Hannover,52.3744779,9.7385532,0.0,0.0,0.0,0.0,0.0,1.0
AWO Frauenhaus &quotLotte Lemke&quot,2103,Hessen,Landkreis,Hochtaunuskreis,50.2268308,8.6181618,0.02068345323741007,0.10611510791366907,0.0,0.8732014388489209,0.0,0.0
AWO Frauenhaus Bielefeld,2118,Nordrhein-Westfalen,Kreisfreie Stadt,Bielefeld,52.035301540103,8.526657636721,0.0,0.0008992805755395684,0.08003597122302158,0.8570143884892086,0.06205035971223022,0.0
AWO Frauenhaus Iserlohn,2232,Nordrhein-Westfalen,Kreis,Märkischer Kreis,51.383210093974,7.684256826022,0.02158273381294964,0.2221223021582734,0.0,0.7544964028776978,0.0017985611510791368,0.0
AWO Frauenhaus Landshut,2187,Bayern,Kreisfreie Stadt,Landshut,48.53761662542,12.153462601108,0.0,0.0,0.0,1.0,0.0,0.0
AWO Frauenhaus Ludwigslust,2148,Mecklenburg-Vorpommern,Landkreis,Ludwigslust-Parchim,53.3244914,11.4969238,0.03507194244604316,0.05485611510791367,0.0,0.8048561151079137,0.02877697841726619,0.0764388489208633
AWO Frauenhaus Neu-Ulm,2094,Bayern,Landkreis,Neu-Ulm,48.376176,10.008997602757,0.0,0.0035971223021582736,0.0,0.2778776978417266,0.0,0.7185251798561151
AWO Frauenhaus Nurdan-Eker Wiesbaden,2312,Hessen,Kreisfreie Stadt,Wiesbaden,50.092145133904,8.233820739889,0.0,0.0,0.0,1.0,0.0,0.0
AWO Frauenhaus Schaumburg,2353,Niedersachsen,Landkreis,Schaumburg,52.31830254248,9.204289693607,0.0,0.0,0.2949640287769784,0.13848920863309352,0.0,0.5179856115107914
AWO Frauenhaus Schwalm-Eder,2104,Hessen,Landkreis,Schwalm-Eder-Kreis,51.030353699843,9.41785004983,0.0,0.0,0.07733812949640288,0.9226618705035972,0.0,0.0
AWO Frauenhaus Würzburg,2138,Bayern,Kreisfreie Stadt,Würzburg,49.802231315947,9.936143759985,0.0,0.008093525179856115,0.1447841726618705,0.39118705035971224,0.008992805755395683,0.44694244604316546
AWO Frauenschutzhaus Stralsund,2172,Mecklenburg-Vorpommern,Landkreis,Vorpommern-Rügen,54.3161903,13.0950601,0.0,0.0,0.454136690647482,0.46223021582733814,0.046762589928057555,0.0368705035971223
AWO-Frauenhaus,2311,Nordrhein-Westfalen,Kreis,Kleve,51.789621872871,6.145853870316,0.007194244604316547,0.025179856115107913,0.0,0.9676258992805755,0.0,0.0
AWO-Frauenhaus im Landkreis Harburg,2386,Niedersachsen,Landkreis,Harburg,53.360527316544,9.825140798087,0.0,0.0,0.0,0.0,0.0,1.0
AWO-Frauenhaus-Bottrop,2321,Nordrhein-Westfalen,Kreisfreie Stadt,Bottrop,51.522238111129,6.926211462971,0.013489208633093525,0.05665467625899281,0.0,0.89568345323741,0.0341726618705036,0.0
Autonome Frauenschutzeinrichtung Brandenburg an der Havel,2347,Brandenburg,Kreisfreie Stadt,Brandenburg an der Havel,52.4155967,12.552183065949,0.0,0.0,0.0,0.0,0.0,1.0
Autonomes Bremer Frauenhaus,2198,Bremen,Kreisfreie Stadt,Bremen,53.076516637178,8.80872139115,0.0,0.0,0.0,0.0,0.0,1.0
Autonomes Frauenhaus,2081,Hessen,Landkreis,Waldeck-Frankenberg,51.11062982947,9.116401666944,0.0008992805755395684,0.029676258992805755,0.0,0.9694244604316546,0.0,0.0
Autonomes Frauenhaus,2170,Hessen,Landkreis,Main-Kinzig-Kreis,50.25418357165,9.295718601627,0.008093525179856115,0.015287769784172662,0.0035971223021582736,0.966726618705036,0.006294964028776978,0.0
Autonomes Frauenhaus Bielefeld,2220,Nordrhein-Westfalen,Kreisfreie Stadt,Bielefeld,52.0191005,8.531007,0.0,0.0,0.002697841726618705,0.9973021582733813,0.0,0.0
Autonomes Frauenhaus Celle,2041,Niedersachsen,Landkreis,Celle,52.620867,10.0626059,0.03507194244604316,0.07913669064748201,0.0,0.8570143884892086,0.01618705035971223,0.012589928057553957
Autonomes Frauenhaus Dortmund,2052,Nordrhein-Westfalen,Kreisfreie Stadt,Dortmund,51.5142273,7.4652789,0.0,0.023381294964028777,0.045863309352517985,0.9298561151079137,0.0008992805755395684,0.0
Autonomes Frauenhaus Duisburg,2199,Nordrhein-Westfalen,Kreisfreie Stadt,Duisburg,51.434999,6.759562,0.002697841726618705,0.0,0.044964028776978415,0.9487410071942446,0.0035971223021582736,0.0
Autonomes Frauenhaus Elmshorn,2049,Schleswig-Holstein,Kreis,Pinneberg,53.7542251,9.6592636,0.0017985611510791368,0.052158273381294966,0.0,0.935251798561151,0.01079136690647482,0.0
Autonomes Frauenhaus Erlangen,2265,Bayern,Kreisfreie Stadt,Erlangen,49.59608204841,11.001999091098,0.0,0.0,0.0,0.0,0.0,0.9991007194244604
Autonomes Frauenhaus Frankfurt,2091,Hessen,Kreisfreie Stadt,Frankfurt am Main,50.1109221,8.6821267,0.08902877697841727,0.044964028776978415,0.039568345323741004,0.8201438848920863,0.006294964028776978,0.0
Autonomes Frauenhaus Gießen,2181,Hessen,Landkreis,Gießen,50.581233679102,8.666742445447,0.0,0.006294964028776978,0.07194244604316546,0.8974820143884892,0.024280575539568347,0.0
Autonomes Frauenhaus Heilbronn,2259,Baden-Württemberg,Stadtkreis,Heilbronn,49.131106886991,9.228034832273,0.0,0.0170863309352518,0.0,0.9055755395683454,0.0,0.07733812949640288
Autonomes Frauenhaus Itzehoe,2193,Schleswig-Holstein,Kreis,Steinburg,53.9242344,9.5100452,0.012589928057553957,0.0008992805755395684,0.00539568345323741,0.9811151079136691,0.0,0.0
Autonomes Frauenhaus Kempten (Allgäu),2024,Bayern,Kreisfreie Stadt,Kempten (Allgäu),47.762382099999996,10.3245689,0.0,0.0,0.0,1.0,0.0,0.0
Autonomes Frauenhaus Kreis Plön,2034,Schleswig-Holstein,Kreis,Plön,54.232749761427,10.279783840293,0.018884892086330936,0.06924460431654676,0.009892086330935251,0.8983812949640287,0.002697841726618705,0.0008992805755395684
Autonomes Frauenhaus Leverkusen,2151,Nordrhein-Westfalen,Kreisfreie Stadt,Leverkusen,51.036439483933,6.993204651605,0.0035971223021582736,0.0017985611510791368,0.002697841726618705,0.9847122302158273,0.007194244604316547,0.0
Autonomes Frauenhaus Lörrach,2075,Baden-Württemberg,Landkreis,Lörrach,47.602006174985,7.6622878822819995,0.017985611510791366,0.08003597122302158,0.06564748201438848,0.36241007194244607,0.0,0.4739208633093525
Autonomes Frauenhaus Lübeck,2249,Schleswig-Holstein,Kreisfreie Stadt,Lübeck,53.867549231603,10.687671111421,0.0,0.0,0.0,1.0,0.0,0.0
Autonomes Frauenhaus Lüneburg,2066,Niedersachsen,Landkreis,Lüneburg,53.2497728,10.4197721,0.0,0.0,0.0,1.0,0.0,0.0
Autonomes Frauenhaus Marburg,2025,Hessen,Landkreis,Marburg-Biedenkopf,50.8117327,8.7757742,0.0017985611510791368,0.029676258992805755,0.09262589928057553,0.8758992805755396,0.0,0.0
Autonomes Frauenhaus Memmingen,2069,Bayern,Kreisfreie Stadt,Memmingen,47.9848507,10.1870278,0.014388489208633094,0.007194244604316547,0.01079136690647482,0.03237410071942446,0.03776978417266187,0.8974820143884892
Autonomes Frauenhaus Münster,2141,Nordrhein-Westfalen,Kreisfreie Stadt,Münster,51.956729697633,7.632398512595,0.0017985611510791368,0.01079136690647482,0.0,0.987410071942446,0.0,0.0
Autonomes Frauenhaus Neumünster,2063,Schleswig-Holstein,Kreisfreie Stadt,Neumünster,54.074247318196,9.984462815518,0.008992805755395683,0.02697841726618705,0.0,0.947841726618705,0.01618705035971223,0.0
Autonomes Frauenhaus Oldenburg e.V.,2136,Niedersachsen,Kreisfreie Stadt,Oldenburg (Oldb),53.139855192327,8.227910833021,0.0,0.0,0.0,0.0,0.08543165467625899,0.914568345323741
Autonomes Frauenhaus Osnabrück,2089,Niedersachsen,Kreisfreie Stadt,Osnabrück,52.274435951938,8.04727121527,0.025179856115107913,0.007194244604316547,0.0,0.9361510791366906,0.03147482014388489,0.0
Autonomes Frauenhaus Regensburg,2225,Bayern,Kreisfreie Stadt,Regensburg,48.98322105,12.151901371455,0.0,0.024280575539568347,0.25089928057553956,0.5035971223021583,0.0,0.22122302158273383
Autonomes Frauenhaus Rheydt,2048,Nordrhein-Westfalen,Kreisfreie Stadt,Mönchengladbach,51.164802443583,6.446487203488,0.0,0.0008992805755395684,0.0008992805755395684,0.9838129496402878,0.014388489208633094,0.0
Autonomes Frauenhaus Rostock,2163,Mecklenburg-Vorpommern,Landkreis,Rostock,54.052138471041,12.10428681682,0.0,0.025179856115107913,0.0,0.9127697841726619,0.06205035971223022,0.0
Autonomes Frauenhaus Stuttgart,2078,Baden-Württemberg,Stadtkreis,Stuttgart,48.763984707357,9.174786993125,0.03147482014388489,0.0044964028776978415,0.019784172661870502,0.9442446043165468,0.0,0.0
Autonomes Frauenhaus Trier,2137,Rheinland-Pfalz,Kreisfreie Stadt,Trier,49.749992,6.6371433,0.07194244604316546,0.013489208633093525,0.002697841726618705,0.75,0.0,0.0
Autonomes Frauenhaus Tübingen,2012,Baden-Württemberg,Landkreis,Tübingen,48.52057725995,9.025027129822,0.0,0.07464028776978417,0.0,0.914568345323741,0.01079136690647482,0.0
Autonomes Frauenhaus Wedel,2188,Schleswig-Holstein,Kreis,Pinneberg,53.583195431882,9.709891071281,0.0,0.0,0.0,0.97931654676259,0.02068345323741007,0.0
BIG Hotline - Beratung und Vermittlung,2281,Berlin,Kreisfreie Stadt,Berlin,52.5170365,13.3888599,0.0,0.0,0.0,0.0,0.0,1.0
Beratung für Frauen/Frauenschutzhaus Biberach,2360,Baden-Württemberg,Landkreis,Biberach,48.093565642996,9.786809486456,0.0,0.0,0.0,0.0,0.0,1.0
Beratungs- und Krisenzentrum für Frauen,2122,Brandenburg,Landkreis,Havelland,52.59248315,12.328108634457,0.0,0.0,0.0,0.0,0.0,1.0
Beratungsstelle für Betroffene von häuslicher Gewalt,2190,Mecklenburg-Vorpommern,Landkreis,Vorpommern-Rügen,54.4151606,13.425834,0.01079136690647482,0.0,0.0,0.9865107913669064,0.002697841726618705,0.0
Caritas Frauenhaus Ingolstadt,2260,Bayern,Kreisfreie Stadt,Ingolstadt,48.7630165,11.4250395,0.0,0.0,0.008093525179856115,0.1591726618705036,0.0,0.8327338129496403
Caritas Frauenhaus Landshut,2218,Bayern,Kreisfreie Stadt,Landshut,48.538071270726,12.162603569431,0.0,0.0,0.0,1.0,0.0,0.0
Caritas-Frauenhaus,2098,Berlin,Kreisfreie Stadt,Berlin,52.559654245315,13.370605613927,0.0,0.0,0.0,0.0,0.0,1.0
DRK KV Eichsfeld e.V. Frauenschutzwohnung Leinefelde,2282,Thüringen,Landkreis,Eichsfeld,51.425144533056,10.35842107336,0.0,0.0,0.0,0.0,0.0,1.0
DRk Frauenschutzhaus Burg,2307,Sachsen-Anhalt,Landkreis,Jerichower Land,52.269276139014,11.852119516482,0.0,0.0,0.12589928057553956,0.8741007194244604,0.0,0.0
Frauen - und Kinderschutzhaus,2339,Hessen,Landkreis,Darmstadt-Dieburg,49.893363,8.836827,0.0,0.024280575539568347,0.007194244604316547,0.9640287769784173,0.0044964028776978415,0.0
Frauen - und Kinderschutzhaus Filder,2080,Baden-Württemberg,Landkreis,Esslingen,48.663256354141,9.219398527189,0.0017985611510791368,0.01618705035971223,0.0,0.9820143884892086,0.0,0.0
Frauen helfen Frauen Schwarzwald Baar e.V.,2262,Baden-Württemberg,Landkreis,Schwarzwald-Baar-Kreis,48.05923605,8.462281102255,0.0,0.0,0.0,0.0,0.0,1.0
Frauen helfen Frauen e.V.,2153,Nordrhein-Westfalen,Kreisfreie Stadt,Wuppertal,51.283777950273,7.143748029476,0.0017985611510791368,0.0044964028776978415,0.006294964028776978,0.9694244604316546,0.017985611510791366,0.0
Frauen helfen Frauen e.V.,2275,Bayern,Landkreis,Bad Tölz-Wolfratshausen,47.915446386913,11.423220582099,0.02877697841726619,0.08992805755395683,0.03327338129496403,0.8327338129496403,0.014388489208633094,0.0
Frauen helfen Frauen e.V. Dinslaken,2145,Nordrhein-Westfalen,Kreis,Wesel,51.567639806596,6.747491084656,0.014388489208633094,0.008093525179856115,0.05575539568345324,0.9046762589928058,0.0170863309352518,0.0
Frauen helfen Frauen e.V. Heidelberg,2152,Baden-Württemberg,Stadtkreis,Heidelberg,49.38167105,8.677039550252,0.0044964028776978415,0.1196043165467626,0.0,0.8507194244604317,0.025179856115107913,0.0
Frauen in Not-Frauenhaus,2061,Mecklenburg-Vorpommern,Kreisfreie Stadt,Schwerin,53.627833083723,11.405380088953,0.0,0.0,0.019784172661870502,0.7392086330935251,0.0,0.24100719424460432
Frauen- und Kinderhaus Offenbach,2077,Hessen,Kreisfreie Stadt,Offenbach am Main,50.104010086859,8.76674981179,0.0,0.025179856115107913,0.0,0.9739208633093526,0.0008992805755395684,0.0
Frauen- und Kinderhaus Salzwedel,2251,Sachsen-Anhalt,Landkreis,Altmarkkreis Salzwedel,52.851333063238,11.154713708822,0.0,0.09352517985611511,0.18705035971223022,0.3669064748201439,0.0,0.35251798561151076
Frauen- und Kinderhaus e.V. Uelzen,2084,Niedersachsen,Landkreis,Uelzen,52.964904113123,10.562643359678,0.0,0.0,0.0,0.0,0.0,1.0
Frauen- und Kinderhilfe Göppingen,2097,Baden-Württemberg,Landkreis,Göppingen,48.705872999684,9.649685019812999,0.0,0.03776978417266187,0.015287769784172662,0.09172661870503597,0.0,0.8552158273381295
Frauen- und Kinderschutzeinrichtung,2159,Baden-Württemberg,Landkreis,Ostalbkreis,48.8009955981,9.788703360852,0.0,0.0,0.0368705035971223,0.6879496402877698,0.0,0.2751798561151079
Frauen- und Kinderschutzhaus,2180,Bayern,Kreisfreie Stadt,Regensburg,48.98322105,12.151901371455,0.0,0.0,0.0,0.9982014388489209,0.0,0.0
Frauen- und Kinderschutzhaus,2268,Baden-Württemberg,Landkreis,Ravensburg,47.764202227177,9.604661644156,0.01079136690647482,0.025179856115107913,0.0,0.5413669064748201,0.0,0.4226618705035971
Frauen- und Kinderschutzhaus,2365,Nordrhein-Westfalen,Kreis,Coesfeld,51.825388946298,7.269914071563,0.00539568345323741,0.011690647482014389,0.24910071942446044,0.7338129496402878,0.0,0.0
Frauen- und Kinderschutzhaus,2423,Nordrhein-Westfalen,Kreis,Höxter,51.502765616284,9.117780029782,0.0035971223021582736,0.012589928057553957,0.08902877697841727,0.7742805755395683,0.002697841726618705,0.0008992805755395684
Frauen- und Kinderschutzhaus Aachen,2270,Nordrhein-Westfalen,Kreis,Städteregion Aachen,50.788047150729,6.097588101025,0.0,0.0341726618705036,0.13309352517985612,0.670863309352518,0.1618705035971223,0.0
Frauen- und Kinderschutzhaus Ammerland Wesermarsch,2309,Niedersachsen,Landkreis,Ammerland,53.186117454157,8.002655371563,0.0,0.0,0.0,0.0,0.0,1.0
Frauen- und Kinderschutzhaus Ballenstedt,2280,Sachsen-Anhalt,Landkreis,Harz,51.722527,11.2290268,0.0,0.1789568345323741,0.0,0.3776978417266187,0.4433453237410072,0.0
Frauen- und Kinderschutzhaus Bay. Untermain,2120,Bayern,Kreisfreie Stadt,Aschaffenburg,49.977036120801,9.145832480125,0.0,0.006294964028776978,0.0,0.9037769784172662,0.0,0.08902877697841727
Frauen- und Kinderschutzhaus Bernburg (Saale),2227,Sachsen-Anhalt,Landkreis,Salzlandkreis,51.783018835759,11.754099790778,0.0,0.0,0.0,0.0,0.0,1.0
Frauen- und Kinderschutzhaus Dorsten,2115,Nordrhein-Westfalen,Kreis,Recklinghausen,51.654119376554,6.963879626385,0.06654676258992806,0.0539568345323741,0.0,0.8794964028776978,0.0,0.0
Frauen- und Kinderschutzhaus Freiburg,2092,Baden-Württemberg,Stadtkreis,Freiburg im Breisgau,48.0327354,7.857524774655,0.0,0.0,0.0,1.0,0.0,0.0
Frauen- und Kinderschutzhaus Hannover,2085,Niedersachsen,Landkreis,Region Hannover,52.365613497692,9.755097172235,0.0,0.0,0.0,0.0,0.0,1.0
Frauen- und Kinderschutzhaus Heckertstift,2008,Baden-Württemberg,Stadtkreis,Mannheim,49.492173028558,8.452588097834,0.06384892086330936,0.23651079136690648,0.0,0.552158273381295,0.0,0.002697841726618705
Frauen- und Kinderschutzhaus Heidenheim,2239,Baden-Württemberg,Landkreis,Heidenheim,48.682679502339,10.139461490017,0.0,0.0,0.0,0.0,0.0,1.0
Frauen- und Kinderschutzhaus Heilbronn,2126,Baden-Württemberg,Stadtkreis,Heilbronn,49.140048540701,9.219636925251,0.0,0.013489208633093525,0.017985611510791366,0.9685251798561151,0.0,0.0
Frauen- und Kinderschutzhaus Konstanz,2408,Baden-Württemberg,Landkreis,Konstanz,47.681740847498,9.158822455441,0.009892086330935251,0.07553956834532374,0.21942446043165467,0.3210431654676259,0.018884892086330936,0.31744604316546765
Frauen- und Kinderschutzhaus Krefeld,2229,Nordrhein-Westfalen,Kreisfreie Stadt,Krefeld,51.331785882029,6.558523443055,0.008992805755395683,0.06654676258992806,0.014388489208633094,0.9100719424460432,0.0,0.0
Frauen- und Kinderschutzhaus Kreis Viersen,2156,Nordrhein-Westfalen,Kreis,Viersen,51.253916413955,6.389885517278,0.0,0.0017985611510791368,0.046762589928057555,0.9514388489208633,0.0,0.0
Frauen- und Kinderschutzhaus Landkreis Leipzig,2003,Sachsen,Landkreis,Leipzig,51.124032663272,12.506939561096,0.02697841726618705,0.2356115107913669,0.0,0.737410071942446,0.0,0.0
Frauen- und Kinderschutzhaus Leipzig,2376,Sachsen,Kreisfreie Stadt,Leipzig,51.3406321,12.3747329,0.0,0.0,0.0,0.0,0.0,1.0
Frauen- und Kinderschutzhaus Merseburg,2030,Sachsen-Anhalt,Landkreis,Saalekreis,51.3568506,11.9904345,0.0,0.0,0.0,1.0,0.0,0.0
Frauen- und Kinderschutzhaus Moers,2330,Nordrhein-Westfalen,Kreis,Wesel,51.446276386047,6.636759749098,0.00539568345323741,0.0,0.023381294964028777,0.9712230215827338,0.0,0.0
Frauen- und Kinderschutzhaus Neckar-Odenwald-Kreis,2234,Baden-Württemberg,Landkreis,Neckar-Odenwald-Kreis,49.3489153,9.1293829,0.0710431654676259,0.0,0.02158273381294964,0.11510791366906475,0.019784172661870502,0.7724820143884892
Frauen- und Kinderschutzhaus Neubrandenburg,2216,Mecklenburg-Vorpommern,Landkreis,Mecklenburgische Seenplatte,53.557445799999996,13.2602781,0.0,0.0,0.28327338129496404,0.2383093525179856,0.0,0.4784172661870504
Frauen- und Kinderschutzhaus Pirna,2072,Sachsen,Landkreis,Sächsische Schweiz-Osterzgebirge,50.9624776,13.9284303,0.0,0.0,0.0,0.0,0.0,1.0
Frauen- und Kinderschutzhaus Radebeul,2045,Sachsen,Landkreis,Meißen,51.1031702,13.6215949,0.0,0.0,0.7922661870503597,0.0,0.0,0.2077338129496403
Frauen- und Kinderschutzhaus Radolfzell,2258,Baden-Württemberg,Landkreis,Konstanz,47.7409243,8.955847834383,0.0,0.0044964028776978415,0.02697841726618705,0.6537769784172662,0.0,0.3147482014388489
Frauen- und Kinderschutzhaus Rems-Murr-Kreis,2206,Baden-Württemberg,Landkreis,Rems-Murr-Kreis,48.830787760572,9.325598847299,0.0,0.0,0.017985611510791366,0.5089928057553957,0.0,0.47302158273381295
Frauen- und Kinderschutzhaus Sangerhausen,2058,Sachsen-Anhalt,Landkreis,Mansfeld-Südharz,51.4798304,11.2943896,0.0,0.00539568345323741,0.5314748201438849,0.26258992805755393,0.0,0.20053956834532374
Frauen- und Kinderschutzhaus Staßfurt,2175,Sachsen-Anhalt,Landkreis,Salzlandkreis,51.846982652569,11.592657358624,0.0,0.0,0.0,0.07194244604316546,0.0,0.9280575539568345
Frauen- und Kinderschutzhaus Troisdorf,2130,Nordrhein-Westfalen,Kreis,Rhein-Sieg-Kreis,50.813948,7.1508684,0.008992805755395683,0.017985611510791366,0.0044964028776978415,0.9631294964028777,0.00539568345323741,0.0
Frauen- und Kinderschutzhaus Waldshut,2101,Baden-Württemberg,Landkreis,Waldshut,47.635706238259,8.272258305191,0.0,0.0,0.0,0.0,0.0,1.0
Frauen- und Kinderschutzhaus des Landkreises Oldenburg,2429,Niedersachsen,Landkreis,Oldenburg,52.903874494874,8.445246410384,0.0,0.0,0.0,0.0,0.0,0.8615107913669064
Frauen- und Kinderschutzhaus für den Kreis Mettmann,2111,Nordrhein-Westfalen,Kreis,Mettmann,51.255178427612,6.968892885788,0.00539568345323741,0.0044964028776978415,0.03507194244604316,0.9514388489208633,0.0035971223021582736,0.0
Frauen- und Kinderschutzhaus im Hohenlohekreis,2222,Baden-Württemberg,Landkreis,Hohenlohekreis,49.181288581991,9.637402053841999,0.03507194244604316,0.18345323741007194,0.0,0.7814748201438849,0.0,0.0
Frauen- und Kinderschutzhäuser Münster,2226,Nordrhein-Westfalen,Kreisfreie Stadt,Münster,51.964715367909,7.65173880509,0.07464028776978417,0.1366906474820144,0.019784172661870502,0.7670863309352518,0.0017985611510791368,0.0
Frauen- und Kinderschutzwohnung Vogtlandkreis,2351,Sachsen,Landkreis,Vogtlandkreis,50.50646945,12.404751585779,0.0,0.0,0.0,0.0,0.0,1.0
Frauen-und Kinderschutzhaus Aschersleben,2291,Sachsen-Anhalt,Landkreis,Salzlandkreis,51.7559549,11.462134,0.0,0.2787769784172662,0.0,0.7212230215827338,0.0,0.0
Frauen-und Kinderschutzhaus Schwäbisch Hall,2176,Baden-Württemberg,Landkreis,Schwäbisch Hall,49.112065275931,9.732801718754,0.0,0.08363309352517985,0.007194244604316547,0.6942446043165468,0.0,0.21492805755395683
Frauen-und Kinderschutzhaus Tuttlingen,2254,Baden-Württemberg,Landkreis,Tuttlingen,47.978972871,8.814629638902,0.0,0.0035971223021582736,0.050359712230215826,0.9460431654676259,0.0,0.0
Frauen-und Kinderschutzwohnung &quotZuflucht&quot Lk Görlitz,2338,Sachsen,Landkreis,Görlitz,50.883994699653,14.806442202914,0.0,0.0,0.0,0.0,0.0,1.0
Frauenhaus,2109,Brandenburg,Landkreis,Elbe-Elster,51.628227951142,13.713308618555,0.019784172661870502,0.2158273381294964,0.0,0.7571942446043165,0.007194244604316547,0.0
Frauenhaus,2142,Bayern,Kreisfreie Stadt,Bayreuth,49.9425551,11.5744543,0.0170863309352518,0.024280575539568347,0.0,0.9586330935251799,0.0,0.0
Frauenhaus,2192,Bayern,Kreisfreie Stadt,Bamberg,49.9006357,10.8997336,0.0,0.0,0.0,0.8111510791366906,0.0,0.18884892086330934
Frauenhaus,2341,Baden-Württemberg,Stadtkreis,Karlsruhe,49.0068705,8.4034195,0.0,0.0035971223021582736,0.09712230215827339,0.5989208633093526,0.011690647482014389,0.2886690647482014
Frauenhaus,2401,Niedersachsen,Landkreis,Nienburg (Weser),52.6380924,9.2084155,0.0,0.0,0.0,0.9937050359712231,0.0,0.006294964028776978
Frauenhaus,2407,Hessen,Landkreis,Groß-Gerau,49.9194456,8.4852426,0.0,0.0,0.0,0.9631294964028777,0.0,0.0
Frauenhaus AWO Kreisverband Braunschweig e.V.,2160,Niedersachsen,Kreisfreie Stadt,Braunschweig,52.2646577,10.5236066,0.0,0.0,0.0,0.0,0.0,1.0
Frauenhaus Ahrweiler,2412,Rheinland-Pfalz,Landkreis,Ahrweiler,50.541523495852,7.120312435242,0.00539568345323741,0.0,0.050359712230215826,0.8534172661870504,0.047661870503597124,0.0
Frauenhaus Alb-Donau-Kreis,2314,Baden-Württemberg,Stadtkreis,Ulm,48.401878420682,9.995374632586,0.0,0.0,0.0,0.0,0.0,1.0
Frauenhaus Alsdorf,2244,Nordrhein-Westfalen,Kreis,Städteregion Aachen,50.871672283047,6.208659018565,0.0044964028776978415,0.03776978417266187,0.09622302158273381,0.835431654676259,0.026079136690647483,0.0
Frauenhaus Ansbach,2213,Bayern,Kreisfreie Stadt,Ansbach,49.298815058048,10.573480723219,0.0,0.0,0.0,0.0,0.0,1.0
Frauenhaus Arnsberg,2182,Nordrhein-Westfalen,Kreis,Hochsauerlandkreis,51.407732617724,8.051075898828,0.0,0.002697841726618705,0.05935251798561151,0.8660071942446043,0.07194244604316546,0.0
Frauenhaus Augsburg,2243,Bayern,Kreisfreie Stadt,Augsburg,48.3668041,10.8986971,0.0,0.008992805755395683,0.0,0.12050359712230216,0.0,0.8696043165467626
Frauenhaus Bad Hersfeld,2114,Hessen,Landkreis,Hersfeld-Rotenburg,50.869468708997,9.714945143903,0.0,0.0044964028776978415,0.008992805755395683,0.9505395683453237,0.03597122302158273,0.0
Frauenhaus Bad Kreuznach,2053,Rheinland-Pfalz,Landkreis,Bad Kreuznach,49.8428494,7.8667379,0.0,0.013489208633093525,0.045863309352517985,0.9181654676258992,0.022482014388489208,0.0
Frauenhaus Bergisch Gladbach,2067,Nordrhein-Westfalen,Kreis,Rheinisch-Bergischer Kreis,50.992223921021,7.153430002869,0.0008992805755395684,0.0,0.0764388489208633,0.914568345323741,0.008093525179856115,0.0
Frauenhaus Bergstraße,2043,Hessen,Landkreis,Bergstraße,49.688967095718,8.617601744187,0.0017985611510791368,0.02068345323741007,0.0,0.9532374100719424,0.024280575539568347,0.0
Frauenhaus Bitterfeld-Wolfen,2295,Sachsen-Anhalt,Landkreis,Anhalt-Bitterfeld,51.641033099699,12.307324408998,0.0170863309352518,0.42356115107913667,0.0,0.5593525179856115,0.0,0.0
Frauenhaus Bocholt,2240,Nordrhein-Westfalen,Kreis,Borken,51.851967818808,6.587526413286,0.01079136690647482,0.11241007194244604,0.0,0.8767985611510791,0.0,0.0
Frauenhaus Bochum,2283,Nordrhein-Westfalen,Kreisfreie Stadt,Bochum,51.4818111,7.2196635,0.018884892086330936,0.02697841726618705,0.0,0.9316546762589928,0.022482014388489208,0.0
Frauenhaus Bonn - Frauen helfen Frauen e.V.,2167,Nordrhein-Westfalen,Kreisfreie Stadt,Bonn,50.729451611876,7.083363726367,0.0,0.007194244604316547,0.0,0.9883093525179856,0.0044964028776978415,0.0
Frauenhaus Bremerhaven,2369,Bremen,Kreisfreie Stadt,Bremerhaven,53.529776471842,8.622328260819,0.0,0.0,0.0008992805755395684,0.0,0.0,0.9991007194244604
Frauenhaus Burghausen,2252,Bayern,Landkreis,Altötting,48.170001152799,12.82481067792,0.0,0.0,0.0710431654676259,0.5899280575539568,0.0,0.33902877697841727
Frauenhaus Chemnitz,2099,Sachsen,Kreisfreie Stadt,Chemnitz,50.832365999642,12.920172846924,0.0,0.0,0.22032374100719423,0.0,0.0,0.7796762589928058
Frauenhaus Coburg,2224,Bayern,Kreisfreie Stadt,Coburg,50.257505531706,10.961128141975,0.0,0.0,0.12589928057553956,0.8732014388489209,0.0,0.0
Frauenhaus Dachau,2246,Bayern,Landkreis,Dachau,48.259621637411,11.448716677201,0.0035971223021582736,0.0,0.0,0.0,0.0,0.9955035971223022
Frauenhaus Darmstadt,2070,Hessen,Kreisfreie Stadt,Darmstadt,49.885947405614,8.654001172839,0.0,0.01618705035971223,0.03327338129496403,0.9505395683453237,0.0,0.0
Frauenhaus Datteln,2169,Nordrhein-Westfalen,Kreis,Recklinghausen,51.651767115463,7.328764232949,0.0,0.0,0.14568345323741008,0.85431654676259,0.0,0.0
Frauenhaus Dessau-Roßlau,2304,Sachsen-Anhalt,Kreisfreie Stadt,Dessau-Roßlau,51.8311104,12.2429261,0.0,0.0,0.0,0.0,0.0,1.0
Frauenhaus Diakonisches Werk Hamburg,2366,Hamburg,Kreisfreie Stadt,Hamburg,53.596621886976,10.018615715002,0.0,0.0,0.0,0.0,0.0,1.0
Frauenhaus Dithmarschen,2395,Schleswig-Holstein,Kreis,Dithmarschen,54.193570221951,9.100838263545,0.0,0.014388489208633094,0.0,0.5026978417266187,0.0,0.4829136690647482
Frauenhaus Donnersbergkreis,2221,Rheinland-Pfalz,Landkreis,Donnersbergkreis,49.6669591,7.9801167,0.026079136690647483,0.03866906474820144,0.0,0.935251798561151,0.0,0.0
Frauenhaus Duisburg gGmbH,2203,Nordrhein-Westfalen,Kreisfreie Stadt,Duisburg,51.434999,6.759562,0.008093525179856115,0.023381294964028777,0.04316546762589928,0.8974820143884892,0.02787769784172662,0.0
Frauenhaus Düsseldorf,2419,Nordrhein-Westfalen,Kreisfreie Stadt,Düsseldorf,51.2418056,6.8082556,0.0,0.0,0.019784172661870502,0.9181654676258992,0.0008992805755395684,0.0
Frauenhaus EN,2073,Nordrhein-Westfalen,Kreis,Ennepe-Ruhr-Kreis,51.4438167,7.3417483,0.0017985611510791368,0.0341726618705036,0.0,0.960431654676259,0.0035971223021582736,0.0
Frauenhaus Eisenach,2105,Thüringen,Kreisfreie Stadt,Eisenach,50.990688888944,10.304182716389,0.0,0.0,0.3830935251798561,0.24190647482014388,0.0,0.375
Frauenhaus Emden,2088,Niedersachsen,Kreisfreie Stadt,Emden,53.366076745762,7.207059748026,0.0,0.0,0.0,0.0,0.0,1.0
Frauenhaus Erbach,2261,Hessen,Landkreis,Odenwaldkreis,49.653690533425,8.995164437466,0.0,0.0,0.013489208633093525,0.9865107913669064,0.0,0.0
Frauenhaus Erding,2362,Bayern,Landkreis,Erding,48.304271224419,11.90594429271,0.0,0.24730215827338128,0.019784172661870502,0.6546762589928058,0.07823741007194245,0.0
Frauenhaus Erfurt,2149,Thüringen,Kreisfreie Stadt,Erfurt,50.97579155,11.020273533775,0.0,0.0,0.05755395683453238,0.9424460431654677,0.0,0.0
Frauenhaus Espelkamp,2184,Nordrhein-Westfalen,Kreis,Minden-Lübbecke,52.375750324544,8.632890486707,0.0017985611510791368,0.1447841726618705,0.23201438848920863,0.48201438848920863,0.1393884892086331,0.0
Frauenhaus Essen,2143,Nordrhein-Westfalen,Kreisfreie Stadt,Essen,51.438379602305,7.009099068551,0.006294964028776978,0.008093525179856115,0.0,0.9856115107913669,0.0,0.0
Frauenhaus Esslingen,2065,Baden-Württemberg,Landkreis,Esslingen,48.741421196937,9.310220283594,0.014388489208633094,0.07553956834532374,0.0,0.9091726618705036,0.0008992805755395684,0.0
Frauenhaus FFB,2116,Bayern,Landkreis,Fürstenfeldbruck,48.1717756,11.2623294,0.0,0.0,0.0,0.0,0.0,1.0
Frauenhaus Flensburg,2255,Schleswig-Holstein,Kreisfreie Stadt,Flensburg,54.79485029629,9.423378659978,0.002697841726618705,0.0008992805755395684,0.0,0.9964028776978417,0.0,0.0
Frauenhaus Frankenthal,2123,Rheinland-Pfalz,Kreisfreie Stadt,Frankenthal (Pfalz),49.5377072,8.3560768,0.0,0.0,0.0,0.9964028776978417,0.0035971223021582736,0.0
Frauenhaus Frankfurt (Oder),2248,Brandenburg,Kreisfreie Stadt,Frankfurt (Oder),52.343312285202,14.546619410747,0.07823741007194245,0.0,0.0,0.9217625899280576,0.0,0.0
Frauenhaus Freising,2422,Bayern,Landkreis,Freising,48.399763713312,11.735230175261,0.04136690647482014,0.0,0.01618705035971223,0.1960431654676259,0.0,0.6465827338129496
Frauenhaus Freudenstadt,2215,Baden-Württemberg,Landkreis,Freudenstadt,48.473534333796,8.420503660913,0.0,0.01079136690647482,0.024280575539568347,0.9325539568345323,0.0,0.03237410071942446
Frauenhaus Fulda,2294,Hessen,Landkreis,Fulda,50.555220369978,9.649742916617,0.0,0.002697841726618705,0.0,0.9964028776978417,0.0008992805755395684,0.0
Frauenhaus Fürstenwalde,2388,Brandenburg,Landkreis,Oder-Spree,52.358683193219,14.065068707361,0.0,0.0,0.0,0.0,0.0,1.0
Frauenhaus Fürth,2301,Bayern,Kreisfreie Stadt,Fürth,49.4668322,10.9852942,0.0,0.0,0.0,0.9883093525179856,0.011690647482014389,0.0
Frauenhaus Gelsenkirchen,2112,Nordrhein-Westfalen,Kreisfreie Stadt,Gelsenkirchen,51.540968835085,7.111938609989,0.0,0.0008992805755395684,0.04226618705035971,0.9568345323741008,0.0,0.0
Frauenhaus Gera,2421,Thüringen,Kreisfreie Stadt,Gera,50.8772301,12.0796208,0.0,0.0,0.0,0.0,0.0,0.9379496402877698
Frauenhaus Gotha,2026,Thüringen,Landkreis,Gotha,50.943234424969,10.717486357956,0.0,0.23381294964028776,0.0,0.6555755395683454,0.0,0.11061151079136691
Frauenhaus Greifswald,2146,Mecklenburg-Vorpommern,Landkreis,Vorpommern-Greifswald,54.08939506011,13.379945601414,0.0008992805755395684,0.38848920863309355,0.0,0.006294964028776978,0.19874100719424462,0.4055755395683453
Frauenhaus Gütersloh,2267,Nordrhein-Westfalen,Kreis,Gütersloh,51.9063997,8.3782078,0.0,0.0,0.04946043165467626,0.9505395683453237,0.0,0.0
Frauenhaus Hagar,2155,Bayern,Kreisfreie Stadt,Nürnberg,49.454987367495,11.078057924511,0.0,0.0,0.0,0.0,0.0,1.0
Frauenhaus Hameln e.V.,2113,Niedersachsen,Landkreis,Hameln-Pyrmont,52.105920892881,9.364572592101,0.0,0.06654676258992806,0.13399280575539568,0.7994604316546763,0.0,0.0
Frauenhaus Hamm,2171,Nordrhein-Westfalen,Kreisfreie Stadt,Hamm,51.6697042432,7.831726274505,0.008093525179856115,0.14568345323741008,0.07284172661870504,0.7652877697841727,0.008093525179856115,0.0
Frauenhaus Hanau,2055,Hessen,Landkreis,Main-Kinzig-Kreis,50.121842157395,8.93035691488,0.011690647482014389,0.009892086330935251,0.0017985611510791368,0.9757194244604317,0.0008992805755395684,0.0
Frauenhaus Hannover - Frauen helfen Frauen e.V.,2013,Niedersachsen,Landkreis,Region Hannover,52.377210097868,9.745326084829,0.0,0.03507194244604316,0.0,0.9649280575539568,0.0,0.0
Frauenhaus Hartengrube,2284,Schleswig-Holstein,Kreisfreie Stadt,Lübeck,53.861924849136,10.683346452091,0.0,0.0008992805755395684,0.0,0.9991007194244604,0.0,0.0
Frauenhaus Herford,2033,Nordrhein-Westfalen,Kreis,Herford,52.1196393,8.6637749,0.00539568345323741,0.002697841726618705,0.03507194244604316,0.9415467625899281,0.015287769784172662,0.0
Frauenhaus Herne,2032,Nordrhein-Westfalen,Kreisfreie Stadt,Herne,51.5435523,7.2176455,0.02787769784172662,0.023381294964028777,0.02158273381294964,0.9172661870503597,0.009892086330935251,0.0
Frauenhaus Herten,2157,Nordrhein-Westfalen,Kreisfreie Stadt,Gelsenkirchen,51.572645954604,7.131574084656,0.0,0.0,0.1528776978417266,0.8471223021582733,0.0,0.0
Frauenhaus Hildesheim e.V.,2194,Niedersachsen,Landkreis,Hildesheim,52.152522919656,9.950775478638,0.12679856115107913,0.1735611510791367,0.0,0.6825539568345323,0.0170863309352518,0.0
Frauenhaus Hochfranken,2119,Bayern,Landkreis,Wunsiedel i. Fichtelgebirge,50.162945060814,12.134807622047,0.0,0.0,0.8480215827338129,0.14298561151079137,0.008992805755395683,0.0
Frauenhaus Idar-Oberstein,2183,Rheinland-Pfalz,Landkreis,Birkenfeld,49.699458006547,7.321442009631,0.13219424460431656,0.019784172661870502,0.011690647482014389,0.8363309352517986,0.0,0.0
Frauenhaus Kassel,2165,Hessen,Kreisfreie Stadt,Kassel,51.273161334306,9.466445816736,0.0,0.0,0.05575539568345324,0.9442446043165468,0.0,0.0
Frauenhaus Kirchheim,2173,Baden-Württemberg,Landkreis,Esslingen,48.645195802054,9.452899259968,0.002697841726618705,0.09802158273381295,0.0,0.8992805755395683,0.0,0.0
Frauenhaus Koblenz,2413,Rheinland-Pfalz,Kreisfreie Stadt,Koblenz,50.350559513859,7.592017311078,0.0017985611510791368,0.0,0.002697841726618705,0.9496402877697842,0.002697841726618705,0.0
Frauenhaus Köthen,2161,Sachsen-Anhalt,Landkreis,Anhalt-Bitterfeld,51.75046975,11.988520313845,0.0,0.0,0.06744604316546762,0.0017985611510791368,0.0,0.9307553956834532
Frauenhaus Landau,2332,Rheinland-Pfalz,Kreisfreie Stadt,Landau in der Pfalz,49.19988782812,8.113401055813,0.0,0.018884892086330936,0.026079136690647483,0.9550359712230215,0.0,0.0
Frauenhaus Lauchhammer,2346,Brandenburg,Landkreis,Oberspreewald-Lausitz,51.4957085,13.7605753,0.3012589928057554,0.5044964028776978,0.0,0.044064748201438846,0.0,0.15017985611510792
Frauenhaus Lila Villa e.V.,2409,Rheinland-Pfalz,Landkreis,Bad Dürkheim,49.4612447,8.1705981,0.03866906474820144,0.0170863309352518,0.0,0.9010791366906474,0.0,0.0
Frauenhaus Lippe,2238,Nordrhein-Westfalen,Kreis,Lippe,51.938132853507,8.87196878474,0.03507194244604316,0.04136690647482014,0.022482014388489208,0.8830935251798561,0.017985611510791366,0.0
Frauenhaus Ludwigsburg,2223,Baden-Württemberg,Landkreis,Ludwigsburg,48.905138982478,9.175657488432,0.1223021582733813,0.06474820143884892,0.0,0.810251798561151,0.002697841726618705,0.0
Frauenhaus Ludwigshafen,2415,Rheinland-Pfalz,Kreisfreie Stadt,Ludwigshafen am Rhein,49.479714236326,8.449962862506,0.0,0.002697841726618705,0.0,0.9415467625899281,0.0,0.012589928057553957
Frauenhaus Lüchow,2371,Niedersachsen,Landkreis,Lüchow-Dannenberg,52.969714748761,11.15518272981,0.0,0.0,0.0,0.0,0.0,1.0
Frauenhaus Mainz,2411,Rheinland-Pfalz,Kreisfreie Stadt,Mainz,49.986824590308,8.271431806591,0.0035971223021582736,0.0,0.0,0.9532374100719424,0.0,0.0
Frauenhaus Mayen-Koblenz,2426,Rheinland-Pfalz,Landkreis,Mayen-Koblenz,50.325712347282,7.2284572929,0.0008992805755395684,0.00539568345323741,0.07553956834532374,0.7562949640287769,0.02697841726618705,0.0
Frauenhaus Meiningen,2057,Thüringen,Landkreis,Schmalkalden-Meiningen,50.565930470512,10.408470644478,0.0,0.0,0.33093525179856115,0.42356115107913667,0.0,0.24550359712230216
Frauenhaus Mönchengladbach,2337,Nordrhein-Westfalen,Kreisfreie Stadt,Mönchengladbach,51.201782299521,6.421618467145,0.01079136690647482,0.002697841726618705,0.04226618705035971,0.9442446043165468,0.0,0.0
Frauenhaus München,2387,Bayern,Kreisfreie Stadt,München,48.1371079,11.5753822,0.0,0.0,0.0,0.0,0.0,1.0
Frauenhaus Neunkirchen,2010,Saarland,Landkreis,Neunkirchen,49.37167025,7.207534594691,0.0,0.01079136690647482,0.3129496402877698,0.6762589928057554,0.0,0.0
Frauenhaus Neuruppin,2340,Brandenburg,Landkreis,Ostprignitz-Ruppin,52.920470743076,12.805888514342,0.0,0.0,0.0,0.0,0.0,0.9631294964028777
Frauenhaus Neustadt,2201,Rheinland-Pfalz,Kreisfreie Stadt,Neustadt an der Weinstraße,49.349491832835,8.141965744074,0.0,0.015287769784172662,0.0,0.9721223021582733,0.012589928057553957,0.0
Frauenhaus Norderstedt,2303,Schleswig-Holstein,Kreis,Segeberg,53.7089898,9.9891914,0.0,0.03866906474820144,0.009892086330935251,0.5116906474820144,0.008093525179856115,0.4316546762589928
Frauenhaus Nürnberg,2147,Bayern,Kreisfreie Stadt,Nürnberg,49.454987367495,11.078057924511,0.030575539568345324,0.12679856115107913,0.0,0.8327338129496403,0.009892086330935251,0.0
Frauenhaus Oberhausen,2134,Nordrhein-Westfalen,Kreisfreie Stadt,Oberhausen,51.466433645076,6.858153386625,0.0,0.0,0.0,1.0,0.0,0.0
Frauenhaus Oberursel,2214,Hessen,Landkreis,Hochtaunuskreis,50.203012037124,8.578525319621999,0.008992805755395683,0.0017985611510791368,0.03776978417266187,0.9262589928057554,0.025179856115107913,0.0
Frauenhaus Olpe,2047,Nordrhein-Westfalen,Kreis,Olpe,51.030930004953,7.855977750318,0.0,0.0,0.1420863309352518,0.8552158273381295,0.002697841726618705,0.0
Frauenhaus Ortenau,2235,Baden-Württemberg,Landkreis,Ortenaukreis,48.472922532591,7.96749836209,0.0,0.03597122302158273,0.0,0.0,0.0,0.9640287769784173
Frauenhaus Ostholstein,2189,Schleswig-Holstein,Kreis,Ostholstein,54.119768481237,10.631741869357,0.0017985611510791368,0.02068345323741007,0.0,0.8920863309352518,0.008992805755395683,0.0764388489208633
Frauenhaus Paderborn,2023,Nordrhein-Westfalen,Kreis,Paderborn,51.711630197753,8.754784819168,0.0,0.006294964028776978,0.05665467625899281,0.914568345323741,0.022482014388489208,0.0
Frauenhaus Passau,2125,Bayern,Kreisfreie Stadt,Passau,48.57363833286,13.451816048151,0.0,0.5764388489208633,0.0017985611510791368,0.0,0.0,0.420863309352518
Frauenhaus Pinneberg,2264,Schleswig-Holstein,Kreis,Pinneberg,53.651379970069,9.789546578719,0.0,0.002697841726618705,0.0,0.9973021582733813,0.0,0.0
Frauenhaus Pirmasens,2417,Rheinland-Pfalz,Kreisfreie Stadt,Pirmasens,49.206297144295,7.5975454991269995,0.024280575539568347,0.0,0.14568345323741008,0.7733812949640287,0.0008992805755395684,0.0
Frauenhaus Potsdam,2298,Brandenburg,Kreisfreie Stadt,Potsdam,52.401823067332,13.060633141753,0.0,0.0,0.0,0.0,0.0,1.0
Frauenhaus Recklinghausen e.V.,2380,Nordrhein-Westfalen,Kreis,Recklinghausen,51.562289600477,7.197057131299,0.0,0.008093525179856115,0.01618705035971223,0.9757194244604317,0.0,0.0
Frauenhaus Remscheid,2356,Nordrhein-Westfalen,Kreis,Rheinisch-Bergischer Kreis,51.1463909,7.2148641,0.0035971223021582736,0.006294964028776978,0.014388489208633094,0.9703237410071942,0.00539568345323741,0.0
Frauenhaus Rendsburg gGmbH,2191,Schleswig-Holstein,Kreis,Rendsburg-Eckernförde,54.308288610642,9.658791079076,0.08273381294964029,0.09082733812949641,0.0,0.7580935251798561,0.05575539568345324,0.012589928057553957
Frauenhaus Reutlingen,2245,Baden-Württemberg,Landkreis,Reutlingen,48.490244306328,9.22265822019,0.0,0.0,0.0,0.0,0.0,1.0
Frauenhaus Rhein - Erftkreis e.V.,2076,Nordrhein-Westfalen,Kreis,Rhein-Erft-Kreis,50.8072763,6.8330117999999995,0.00539568345323741,0.002697841726618705,0.0710431654676259,0.920863309352518,0.0,0.0
Frauenhaus Rheine,2313,Nordrhein-Westfalen,Kreis,Steinfurt,52.275648335048,7.43452908728,0.008992805755395683,0.0,0.09532374100719425,0.8687050359712231,0.02697841726618705,0.0
Frauenhaus Rodgau,2166,Hessen,Landkreis,Offenbach,50.021737483593,8.882036802864,0.0,0.011690647482014389,0.0,0.9865107913669064,0.0017985611510791368,0.0
Frauenhaus Rosenheim/Traunstein,2269,Bayern,Kreisfreie Stadt,Rosenheim,47.8571272,12.1181047,0.04316546762589928,0.4739208633093525,0.14388489208633093,0.3381294964028777,0.0,0.0
Frauenhaus Saarbrücken,2009,Saarland,Landkreis,Regionalverband Saarbrücken,49.234338155586,6.986639524139,0.0,0.0,0.14118705035971224,0.8588129496402878,0.0,0.0
Frauenhaus Saarlouis,2217,Saarland,Landkreis,Saarlouis,49.319469368893,6.753084518304,0.0,0.0,0.19154676258992806,0.8084532374100719,0.0,0.0
Frauenhaus Salzgitter,2128,Niedersachsen,Kreisfreie Stadt,Salzgitter,52.159624591925,10.331093344387,0.1564748201438849,0.17086330935251798,0.0,0.0341726618705036,0.022482014388489208,0.6160071942446043
Frauenhaus Schwabach,2177,Bayern,Kreisfreie Stadt,Schwabach,49.329349195087,11.024939052197,0.0,0.0,0.0,0.9991007194244604,0.0,0.0
Frauenhaus Schwarzenbek,2263,Schleswig-Holstein,Kreis,Herzogtum Lauenburg,53.503650426025,10.483866451312,0.0,0.0,0.0,1.0,0.0,0.0
Frauenhaus Schwedt,2079,Brandenburg,Landkreis,Uckermark,53.072867194575,14.277710475059,0.0,0.2823741007194245,0.0,0.0,0.0,0.7176258992805755
Frauenhaus Siegen,2154,Nordrhein-Westfalen,Kreis,Siegen-Wittgenstein,50.8759626,8.0164616,0.0,0.02697841726618705,0.046762589928057555,0.9235611510791367,0.002697841726618705,0.0
Frauenhaus Singen,2237,Baden-Württemberg,Landkreis,Konstanz,47.762044359329,8.853405053013,0.0,0.0,0.10251798561151079,0.8974820143884892,0.0,0.0
Frauenhaus SkF,2117,Bayern,Kreisfreie Stadt,Würzburg,49.7646014,9.9055338,0.0,0.0,0.0,1.0,0.0,0.0
Frauenhaus SkF Karlsruhe,2212,Baden-Württemberg,Stadtkreis,Karlsruhe,49.010942043401,8.392288331104,0.01618705035971223,0.2517985611510791,0.018884892086330936,0.7005395683453237,0.002697841726618705,0.009892086330935251
Frauenhaus Soest,2144,Nordrhein-Westfalen,Kreis,Soest,51.565331935758,8.097908720838,0.0,0.022482014388489208,0.1196043165467626,0.8498201438848921,0.008093525179856115,0.0
Frauenhaus Sondershausen,2038,Thüringen,Landkreis,Kyffhäuserkreis,51.3700633,10.8491714,0.1303956834532374,0.0764388489208633,0.460431654676259,0.16546762589928057,0.026079136690647483,0.14118705035971224
Frauenhaus Sozialdienst katholischer Frauen e.V.,2247,Hessen,Landkreis,Gießen,50.572063246443,8.667524534963,0.007194244604316547,0.050359712230215826,0.02787769784172662,0.914568345323741,0.0,0.0
Frauenhaus Speyer,2174,Rheinland-Pfalz,Kreisfreie Stadt,Speyer,49.322620194502,8.429573035315,0.026079136690647483,0.008093525179856115,0.009892086330935251,0.9316546762589928,0.024280575539568347,0.0
Frauenhaus Stendal,2028,Sachsen-Anhalt,Landkreis,Stendal,52.605557128017,11.847668159234999,0.0,0.0,0.0,0.0,0.0,1.0
Frauenhaus Stormarn,2343,Schleswig-Holstein,Kreis,Stormarn,53.674312919727,10.231099789877,0.03327338129496403,0.05665467625899281,0.0,0.8462230215827338,0.01079136690647482,0.048561151079136694
Frauenhaus Straubing,2108,Bayern,Kreisfreie Stadt,Straubing,48.8777333,12.5801539,0.0,0.0341726618705036,0.0008992805755395684,0.7607913669064749,0.0,0.20323741007194246
Frauenhaus Telgte,2133,Nordrhein-Westfalen,Kreis,Warendorf,51.984441708803,7.788351593569,0.0,0.0,0.05935251798561151,0.939748201438849,0.0008992805755395684,0.0
Frauenhaus Ulm,2230,Baden-Württemberg,Stadtkreis,Ulm,48.402932597842,9.999279928912,0.0,0.0,0.06564748201438848,0.7922661870503597,0.0,0.1420863309352518
Frauenhaus Unna,2233,Nordrhein-Westfalen,Kreis,Unna,51.55022541813,7.691389709733,0.0,0.0,0.008093525179856115,0.9901079136690647,0.0017985611510791368,0.0
Frauenhaus Warendorf,2074,Nordrhein-Westfalen,Kreis,Warendorf,51.9501568,7.9840382,0.0035971223021582736,0.007194244604316547,0.02697841726618705,0.9550359712230215,0.007194244604316547,0.0
Frauenhaus Weiden,2071,Bayern,Kreisfreie Stadt,Weiden i.d. OPf.,49.677827673914,12.154750706237,0.11241007194244604,0.22661870503597123,0.0,0.5818345323741008,0.07913669064748201,0.0
Frauenhaus Weimar,2292,Thüringen,Kreisfreie Stadt,Weimar,50.982827330819,11.322555165749,0.0,0.0,0.5386690647482014,0.15737410071942445,0.0,0.3039568345323741
Frauenhaus Weißenfels,2168,Sachsen-Anhalt,Landkreis,Burgenlandkreis,51.2046563,11.9710163,0.0,0.0,0.0,0.0,0.0,1.0
Frauenhaus Westerwald,2416,Rheinland-Pfalz,Landkreis,Westerwaldkreis,50.66442060915,7.821671710156,0.0,0.05665467625899281,0.0,0.8821942446043165,0.0,0.0
Frauenhaus Wetterau,2059,Hessen,Landkreis,Wetteraukreis,50.332736759446,8.762147100409,0.050359712230215826,0.10071942446043165,0.0,0.8489208633093526,0.0,0.0
Frauenhaus Wetzlar e.V.,2208,Hessen,Landkreis,Lahn-Dill-Kreis,50.559625165351,8.499134628186,0.0008992805755395684,0.03507194244604316,0.002697841726618705,0.9595323741007195,0.0017985611510791368,0.0
Frauenhaus Worms,2410,Rheinland-Pfalz,Kreisfreie Stadt,Worms,49.6238729,8.359877471689,0.0008992805755395684,0.018884892086330936,0.008992805755395683,0.8534172661870504,0.07464028776978417,0.0
Frauenhaus Zollernalbkreis,2046,Baden-Württemberg,Landkreis,Zollernalbkreis,48.269484562955,8.94737584922,0.0,0.15557553956834533,0.0170863309352518,0.7464028776978417,0.08093525179856115,0.0
Frauenhaus der Frauenhilfe München,2348,Bayern,Kreisfreie Stadt,München,48.1351253,11.5819805,0.0,0.0035971223021582736,0.2356115107913669,0.6187050359712231,0.1420863309352518,0.0
Frauenhaus des Caritasverbandes für Stadt und Landkreis Gifhorn,2285,Niedersachsen,Landkreis,Gifhorn,52.484496766686,10.540274633294,0.0,0.5674460431654677,0.0,0.2643884892086331,0.1681654676258993,0.0
Frauenhaus des Rhein-Sieg-Kreises,2228,Nordrhein-Westfalen,Kreis,Rhein-Sieg-Kreis,50.749009526955,7.221746527917,0.01618705035971223,0.015287769784172662,0.02158273381294964,0.9469424460431655,0.0,0.0
Frauenhaus e.V. Solingen,2110,Nordrhein-Westfalen,Kreis,Mettmann,51.1238982,6.978047,0.026079136690647483,0.018884892086330936,0.0,0.9550359712230215,0.0,0.0
Frauenhaus für die Region Main-Rhön in Schweinfurt,2054,Bayern,Kreisfreie Stadt,Schweinfurt,50.04723375,10.224025804585,0.0,0.0,0.0,1.0,0.0,0.0
Frauenhaus im Landkreis Calw,2100,Baden-Württemberg,Landkreis,Calw,48.714306559169,8.741623063857,0.002697841726618705,0.13399280575539568,0.0008992805755395684,0.024280575539568347,0.0,0.8381294964028777
Frauenhaus im Landkreis Kassel,2035,Hessen,Landkreis,Kassel,51.2550775,9.4119007,0.0,0.009892086330935251,0.0008992805755395684,0.9892086330935251,0.0,0.0
Frauenhaus im Landkreis Schwandorf,2195,Bayern,Landkreis,Schwandorf,49.3263177,12.1038045,0.0,0.0,0.13489208633093525,0.15197841726618705,0.0,0.7131294964028777
Frauenhaus und Beratungsstelle,2139,Brandenburg,Landkreis,Oder-Spree,52.1448863,14.6294413,0.0,0.0,0.08363309352517985,0.9163669064748201,0.0,0.0
"Frauenhaus, Beratungs- und Interventionsstelle Limburg",2036,Hessen,Landkreis,Limburg-Weilburg,50.387426446735,8.064561329702,0.002697841726618705,0.051258992805755396,0.03327338129496403,0.9091726618705036,0.0035971223021582736,0.0
Frauenhäuser Geschütztes Wohnen,2327,Baden-Württemberg,Landkreis,Karlsruhe,49.104470848914,8.5913541328,0.0,0.1906474820143885,0.0,0.2751798561151079,0.0,0.5341726618705036
Frauennotruf Hochfranken,2135,Bayern,Kreisfreie Stadt,Hof,50.318924920653,11.923855529507,0.0,0.029676258992805755,0.007194244604316547,0.9622302158273381,0.0,0.0
Frauenschutz Weimarer Land,2062,Thüringen,Landkreis,Weimarer Land,51.020381404684,11.4986504232,0.0,0.0,0.0,1.0,0.0,0.0
FrauenschutzHaus Wolfenbüttel,2306,Niedersachsen,Landkreis,Wolfenbüttel,52.1625283,10.5348215,0.0,0.0,0.0,0.0,0.0,1.0
Frauenschutzangebot,2210,Sachsen,Landkreis,Erzgebirgskreis,50.4756535,12.7667543,0.0,0.5674460431654677,0.0,0.0,0.0,0.43255395683453235
Frauenschutzeinrichtung Zwickau Stadt,2044,Sachsen,Landkreis,Zwickau,50.726853592716,12.490858252887,0.0,0.0,0.0,1.0,0.0,0.0
Frauenschutzhaus,2132,Mecklenburg-Vorpommern,Landkreis,Nordwestmecklenburg,53.8965859,11.4695121,0.02787769784172662,0.13848920863309352,0.0,0.8264388489208633,0.0,0.0
Frauenschutzhaus,2219,Mecklenburg-Vorpommern,Landkreis,Rostock,53.793364322518,12.181076883324,0.0,0.0,0.18075539568345322,0.8192446043165468,0.0,0.0
Frauenschutzhaus,2310,Sachsen-Anhalt,Kreisfreie Stadt,Halle (Saale),51.4825041,11.9705452,0.0,0.0,0.0,0.0,0.0,1.0
Frauenschutzhaus Dresden,2087,Sachsen,Kreisfreie Stadt,Dresden,51.0504088,13.7372621,0.0,0.0,0.0,0.0,0.0,1.0
Frauenschutzhaus Freiberg,2083,Sachsen,Landkreis,Mittelsachsen,50.895481287937,13.333490439612,0.0,0.0,0.6429856115107914,0.35701438848920863,0.0,0.0
Frauenschutzhaus Helmstedt,2290,Niedersachsen,Landkreis,Helmstedt,52.232426476168,11.004057698082,0.0,0.002697841726618705,0.7670863309352518,0.2302158273381295,0.0,0.0
Frauenschutzhaus Magdeburg,2031,Sachsen-Anhalt,Kreisfreie Stadt,Magdeburg,52.109112469784,11.635762688513,0.0,0.0,0.0,0.0,0.0,1.0
Frauenschutzhaus Wittenberg,2319,Sachsen-Anhalt,Landkreis,Wittenberg,51.869377514536,12.646353310986001,0.017985611510791366,0.39118705035971224,0.0,0.1357913669064748,0.03597122302158273,0.41906474820143885
Frauenschutzwohnung,2242,Thüringen,Landkreis,Unstrut-Hainich-Kreis,51.11064946722,10.643128194246,0.0,0.0,0.0,0.0,0.0,1.0
Frauenschutzwohnung Altenburg,2276,Thüringen,Landkreis,Altenburger Land,50.9888921,12.429075,0.0,0.0,0.5845323741007195,0.4154676258992806,0.0,0.0
Frauenschutzwohnungen Landkreis Nordsachsen,2042,Sachsen,Landkreis,Nordsachsen,51.5628862,12.9909587,0.4847122302158273,0.4784172661870504,0.0,0.0,0.0,0.0368705035971223
Frauenschutzzentrum,2325,Nordrhein-Westfalen,Kreis,Minden-Lübbecke,52.292865585765,8.884828610875,0.025179856115107913,0.13219424460431656,0.0,0.8318345323741008,0.01079136690647482,0.0
Frauenzentrum Paula Panke e.V. - Zufluchtswohnung,2068,Berlin,Kreisfreie Stadt,Berlin,52.56961735,13.403536522993,0.0,0.0,0.0,0.0,0.0,1.0
Frauenzimmer e.V.,2082,Berlin,Kreisfreie Stadt,Berlin,52.4836896,13.352822090579,0.0,0.0,0.0,0.0,0.0,1.0
Frauenzuflucht Kaiserslautern,2236,Rheinland-Pfalz,Kreisfreie Stadt,Kaiserslautern,49.44167141989,7.76806020992,0.0,0.0,0.0,1.0,0.0,0.0
Haus für Frauen in Not,2150,Hessen,Landkreis,Rheingau-Taunus-Kreis,50.142945932409,8.06664247563,0.025179856115107913,0.07913669064748201,0.0,0.8758992805755396,0.019784172661870502,0.0
Haus für Frauen in Not Wiesbaden,2158,Hessen,Kreisfreie Stadt,Wiesbaden,50.077813921273,8.236045029311,0.006294964028776978,0.0035971223021582736,0.0,0.9766187050359713,0.013489208633093525,0.0
Hestia Frauenhaus,2102,Berlin,Kreisfreie Stadt,Berlin,52.5034002,13.3386373,0.0,0.0,0.0,0.0,0.0,1.0
Hestia Zufluchtswohnungen Prenzlauer Berg,2096,Berlin,Kreisfreie Stadt,Berlin,52.5355509,13.425688849992,0.0,0.0,0.0,0.8965827338129496,0.10341726618705036,0.0
Hestia-Zufluchtswohnungen Wedding,2051,Berlin,Kreisfreie Stadt,Berlin,52.54108405,13.389616050162,0.0170863309352518,0.0341726618705036,0.0,0.8947841726618705,0.0539568345323741,0.0
Hilfe für Frauen in Not-Frauenhaus Bonn e.V.,2129,Nordrhein-Westfalen,Kreisfreie Stadt,Bonn,50.737581638095,7.101763519581,0.0008992805755395684,0.023381294964028777,0.0170863309352518,0.9586330935251799,0.0,0.0
Internationales Frauenhaus,2328,Nordrhein-Westfalen,Kreisfreie Stadt,Düsseldorf,51.236733864852,6.792454779053,0.0,0.0,0.01618705035971223,0.9838129496402878,0.0,0.0
Jenaer Frauenhaus e.V.,2272,Thüringen,Kreisfreie Stadt,Jena,50.9463598,11.5977589,0.0,0.0,0.08363309352517985,0.9163669064748201,0.0,0.0
KARO e.V.,2266,Sachsen,Landkreis,Vogtlandkreis,50.4950632,12.1346523,0.0,0.4577338129496403,0.16546762589928057,0.3767985611510791,0.0,0.0
Kinder- und Frauenschutzwohnung der Stadt Wernigerode,2287,Sachsen-Anhalt,Landkreis,Harz,51.839931701364,10.783901991418,0.0,0.008992805755395683,0.15827338129496402,0.25539568345323743,0.0,0.5773381294964028
S.H.E. - Schutzhaus für geflüchtete Frauen,2029,Sachsen,Kreisfreie Stadt,Leipzig,51.324894093361,12.374329706113,0.0,0.15197841726618705,0.0,0.03237410071942446,0.8156474820143885,0.0
Schutzhaus für Frauen und Kinder,2107,Nordrhein-Westfalen,Kreis,Euskirchen,50.616462856427,6.84026134715,0.05665467625899281,0.11151079136690648,0.012589928057553957,0.8057553956834532,0.013489208633093525,0.0
Schutzwohnung im Rhein-Neckar-Kreis,2271,Baden-Württemberg,Landkreis,Rhein-Neckar-Kreis,49.54620451729,8.649864854517,0.046762589928057555,0.0,0.0,0.8219424460431655,0.04316546762589928,0.07014388489208633
Sofortaufnahme für gewaltbetroffene Frauen und ihre Kinder - Frauenhaus24 Hannover,2011,Niedersachsen,Landkreis,Region Hannover,52.377057435404,9.736999308768,0.0,0.0,1.0,0.0,0.0,0.0
Städtisches Frauenhaus Stuttgart,2197,Baden-Württemberg,Stadtkreis,Stuttgart,48.76986235,9.211651935853,0.044964028776978415,0.2868705035971223,0.00539568345323741,0.5188848920863309,0.0,0.14388489208633093
Wolfsburger Frauenhaus,2383,Niedersachsen,Kreisfreie Stadt,Wolfsburg,52.421175871211,10.79371507002,0.0035971223021582736,0.08723021582733813,0.03776978417266187,0.75,0.12140287769784172,0.0
Zentrale Sofortaufnahme der Frauen*- und Kinderschutzhäuser Leipzig,2056,Sachsen,Kreisfreie Stadt,Leipzig,51.3844702,12.3160085,0.0,0.0,0.0,0.0,0.0,1.0
Zufluchtswohung Matilde,2060,Berlin,Kreisfreie Stadt,Berlin,52.53713195,13.610523076316,0.0,0.0,0.0,1.0,0.0,0.0
offensiv´91 e.V. Frauenzufluchtswohnung,2037,Berlin,Kreisfreie Stadt,Berlin,52.45499615,13.514810051508,0.0,0.08453237410071943,0.0,0.4685251798561151,0.10971223021582734,0.33723021582733814
Ökumenisches Frauenhaus Pforzheim,2204,Baden-Württemberg,Stadtkreis,Pforzheim,48.8667572,8.7531246,0.0,0.03597122302158273,0.05935251798561151,0.1447841726618705,0.0,0.7598920863309353
