shelter_name,shelter_id,bundesland,bez,gen,latitude,longitude,Aufnahme möglich für Frauen mit bis zu einem Kind,Aufnahme möglich für Frauen mit mehreren Kindern,Aufnahme möglich ohne detaillierte Angabe,Keine Aufnahme möglich,Platz für Frauen ohne Kinder,keine Angabe,einrichtungsart,Gehbehinderung,Hörbehinderung/Taubheit,Sehbehinderung/Blindheit,Suchtmittelabhängigkeit
1. &amp 3. Hamburger Frauenhaus,2382,Hamburg,Kreisfreie Stadt,Hamburg,53.5528284,9.9966396,0.0,0.0,0.016822429906542057,0.0,0.0,0.983177570093458,Frauenhaus,True,False,False,False
1. Autonomes Frauenhaus,2027,Sachsen,Kreisfreie Stadt,Leipzig,51.325187635158,12.373901299377,0.1411214953271028,0.0,0.0,0.2130841121495327,0.6457943925233645,0.0,Frauenhaus,False,False,False,False
1. Frauenhaus Köln,2140,Nordrhein-Westfalen,Kreisfreie Stadt,Köln,50.933466575848,6.998637825656,0.005607476635514018,0.003738317757009346,0.0009345794392523365,0.9869158878504672,0.002803738317757009,0.0,Frauenhaus,True,False,False,False
2. Autonomes Frauenhaus Berlin,2274,Berlin,Kreisfreie Stadt,Berlin,52.516226925016,13.377744825842,0.0,0.0,0.0,0.0,0.0,1.0,Frauenhaus,False,False,False,False
2. Autonomes Frauenhaus Köln,2253,Nordrhein-Westfalen,Kreisfreie Stadt,Köln,50.921396360676,6.995416051662,0.001869158878504673,0.011214953271028037,0.0,0.9822429906542056,0.004672897196261682,0.0,Frauenhaus,False,False,False,False
2. Hamburger Frauenhaus e.V.,2367,Hamburg,Kreisfreie Stadt,Hamburg,53.541814575369,9.998572209518,0.0,0.0,0.0,0.0,0.0,1.0,Frauenhaus,True,False,False,False
24/7 Notaufnahme der Hamburger Frauenhäuser,2039,Hamburg,Kreisfreie Stadt,Hamburg,53.554448,9.991344,0.0,0.0,0.0,0.0,0.0,1.0,,True,False,False,False
4. Frauen*- und Kinderschutzhaus Leipzig,2317,Sachsen,Kreisfreie Stadt,Leipzig,51.3406321,12.3747329,0.024299065420560748,0.19065420560747665,0.0,0.6261682242990654,0.1588785046728972,0.0,Frauenhaus,False,False,False,False
6. Autonomes Frauenhaus Hamburg,2381,Hamburg,Kreisfreie Stadt,Hamburg,53.5528284,9.9966396,0.0,0.0,0.0,0.0,0.0,1.0,Frauenhaus,False,False,False,False
AWO Frauenhaus,2297,Niedersachsen,Landkreis,Region Hannover,52.3744779,9.7385532,0.0,0.0,0.0,0.0,0.0,1.0,Frauenhaus,True,False,False,False
AWO Frauenhaus &quotLotte Lemke&quot,2103,Hessen,Landkreis,Hochtaunuskreis,50.2268308,8.6181618,0.018691588785046728,0.1102803738317757,0.0,0.8710280373831776,0.0,0.0,Frauenhaus,False,False,False,False
AWO Frauenhaus Bielefeld,2118,Nordrhein-Westfalen,Kreisfreie Stadt,Bielefeld,52.035301540103,8.526657636721,0.0,0.0009345794392523365,0.07570093457943926,0.8588785046728972,0.06448598130841121,0.0,Frauenhaus,False,False,False,False
AWO Frauenhaus Iserlohn,2232,Nordrhein-Westfalen,Kreis,Märkischer Kreis,51.383210093974,7.684256826022,0.022429906542056073,0.2,0.0,0.7757009345794392,0.001869158878504673,0.0,Frauenhaus,False,False,False,False
AWO Frauenhaus Landshut,2187,Bayern,Kreisfreie Stadt,Landshut,48.53761662542,12.153462601108,0.0,0.0,0.0,1.0,0.0,0.0,Frauenhaus,False,False,False,False
AWO Frauenhaus Ludwigslust,2148,Mecklenburg-Vorpommern,Landkreis,Ludwigslust-Parchim,53.3244914,11.4969238,0.03644859813084112,0.05700934579439252,0.0,0.797196261682243,0.029906542056074768,0.0794392523364486,Frauenhaus,False,False,False,False
AWO Frauenhaus Neu-Ulm,2094,Bayern,Landkreis,Neu-Ulm,48.376176,10.008997602757,0.0,0.003738317757009346,0.0,0.2570093457943925,0.0,0.7392523364485981,Frauenhaus,False,False,False,False
AWO Frauenhaus Nurdan-Eker Wiesbaden,2312,Hessen,Kreisfreie Stadt,Wiesbaden,50.092145133904,8.233820739889,0.0,0.0,0.0,1.0,0.0,0.0,Frauenhaus,False,False,False,False
AWO Frauenhaus Schaumburg,2353,Niedersachsen,Landkreis,Schaumburg,52.31830254248,9.204289693607,0.0,0.0,0.30654205607476637,0.11214953271028037,0.0,0.5308411214953271,Frauenhaus,False,False,False,False
AWO Frauenhaus Schwalm-Eder,2104,Hessen,Landkreis,Schwalm-Eder-Kreis,51.030353699843,9.41785004983,0.0,0.0,0.07850467289719626,0.9214953271028037,0.0,0.0,Frauenhaus,False,False,False,False
AWO Frauenhaus Würzburg,2138,Bayern,Kreisfreie Stadt,Würzburg,49.802231315947,9.936143759985,0.0,0.008411214953271028,0.15046728971962617,0.3747663551401869,0.009345794392523364,0.4570093457943925,Frauenhaus,False,False,False,False
AWO Frauenschutzhaus Stralsund,2172,Mecklenburg-Vorpommern,Landkreis,Vorpommern-Rügen,54.3161903,13.0950601,0.0,0.0,0.44018691588785047,0.47289719626168225,0.048598130841121495,0.038317757009345796,Frauenhaus,False,False,False,False
AWO-Frauenhaus,2311,Nordrhein-Westfalen,Kreis,Kleve,51.789621872871,6.145853870316,0.007476635514018692,0.02336448598130841,0.0,0.9691588785046729,0.0,0.0,Frauenhaus,False,False,False,False
AWO-Frauenhaus im Landkreis Harburg,2386,Niedersachsen,Landkreis,Harburg,53.360527316544,9.825140798087,0.0,0.0,0.0,0.0,0.0,1.0,Frauenhaus,False,False,False,False
AWO-Frauenhaus-Bottrop,2321,Nordrhein-Westfalen,Kreisfreie Stadt,Bottrop,51.522238111129,6.926211462971,0.014018691588785047,0.058878504672897194,0.0,0.891588785046729,0.03551401869158879,0.0,Frauenhaus,False,False,False,False
Autonome Frauenschutzeinrichtung Brandenburg an der Havel,2347,Brandenburg,Kreisfreie Stadt,Brandenburg an der Havel,52.4155967,12.552183065949,0.0,0.0,0.0,0.0,0.0,1.0,Frauenhaus,True,False,False,False
Autonomes Bremer Frauenhaus,2198,Bremen,Kreisfreie Stadt,Bremen,53.076516637178,8.80872139115,0.0,0.0,0.0,0.0,0.0,1.0,Frauenhaus,False,True,False,False
Autonomes Frauenhaus,2081,Hessen,Landkreis,Waldeck-Frankenberg,51.11062982947,9.116401666944,0.0009345794392523365,0.0308411214953271,0.0,0.9682242990654205,0.0,0.0,Frauenhaus,False,False,False,False
Autonomes Frauenhaus,2170,Hessen,Landkreis,Main-Kinzig-Kreis,50.25418357165,9.295718601627,0.008411214953271028,0.01588785046728972,0.003738317757009346,0.9654205607476636,0.0065420560747663555,0.0,Frauenhaus,False,False,False,False
Autonomes Frauenhaus Bielefeld,2220,Nordrhein-Westfalen,Kreisfreie Stadt,Bielefeld,52.0191005,8.531007,0.0,0.0,0.002803738317757009,0.997196261682243,0.0,0.0,Frauenhaus,False,False,False,False
Autonomes Frauenhaus Celle,2041,Niedersachsen,Landkreis,Celle,52.620867,10.0626059,0.03644859813084112,0.08224299065420561,0.0,0.8514018691588785,0.016822429906542057,0.013084112149532711,Frauenhaus,False,False,False,False
Autonomes Frauenhaus Dortmund,2052,Nordrhein-Westfalen,Kreisfreie Stadt,Dortmund,51.5142273,7.4652789,0.0,0.024299065420560748,0.044859813084112146,0.9299065420560748,0.0009345794392523365,0.0,Frauenhaus,True,True,False,False
Autonomes Frauenhaus Duisburg,2199,Nordrhein-Westfalen,Kreisfreie Stadt,Duisburg,51.434999,6.759562,0.002803738317757009,0.0,0.037383177570093455,0.9560747663551402,0.003738317757009346,0.0,Frauenhaus,False,False,False,False
Autonomes Frauenhaus Elmshorn,2049,Schleswig-Holstein,Kreis,Pinneberg,53.7542251,9.6592636,0.001869158878504673,0.05420560747663551,0.0,0.9327102803738317,0.011214953271028037,0.0,Frauenhaus,False,False,False,False
Autonomes Frauenhaus Erlangen,2265,Bayern,Kreisfreie Stadt,Erlangen,49.59608204841,11.001999091098,0.0,0.0,0.0,0.0,0.0,0.9990654205607477,Frauenhaus,True,False,False,False
Autonomes Frauenhaus Frankfurt,2091,Hessen,Kreisfreie Stadt,Frankfurt am Main,50.1109221,8.6821267,0.08691588785046729,0.04672897196261682,0.041121495327102804,0.8186915887850468,0.0065420560747663555,0.0,Frauenhaus,False,False,False,False
Autonomes Frauenhaus Gießen,2181,Hessen,Landkreis,Gießen,50.581233679102,8.666742445447,0.0,0.0065420560747663555,0.06542056074766354,0.9074766355140187,0.020560747663551402,0.0,Frauenhaus,False,False,False,False
Autonomes Frauenhaus Heilbronn,2259,Baden-Württemberg,Stadtkreis,Heilbronn,49.131106886991,9.228034832273,0.0,0.017757009345794394,0.0,0.9018691588785047,0.0,0.08037383177570094,Frauenhaus,False,False,False,False
Autonomes Frauenhaus Itzehoe,2193,Schleswig-Holstein,Kreis,Steinburg,53.9242344,9.5100452,0.013084112149532711,0.0009345794392523365,0.005607476635514018,0.9803738317757009,0.0,0.0,Frauenhaus,True,True,True,False
Autonomes Frauenhaus Kempten (Allgäu),2024,Bayern,Kreisfreie Stadt,Kempten (Allgäu),47.762382099999996,10.3245689,0.0,0.0,0.0,1.0,0.0,0.0,Frauenhaus,False,False,False,False
Autonomes Frauenhaus Kreis Plön,2034,Schleswig-Holstein,Kreis,Plön,54.232749761427,10.279783840293,0.019626168224299065,0.06448598130841121,0.010280373831775701,0.902803738317757,0.002803738317757009,0.0,Frauenhaus,True,False,False,False
Autonomes Frauenhaus Leverkusen,2151,Nordrhein-Westfalen,Kreisfreie Stadt,Leverkusen,51.036439483933,6.993204651605,0.003738317757009346,0.001869158878504673,0.002803738317757009,0.9841121495327103,0.007476635514018692,0.0,Frauenhaus,False,False,False,False
Autonomes Frauenhaus Lörrach,2075,Baden-Württemberg,Landkreis,Lörrach,47.602006174985,7.6622878822819995,0.018691588785046728,0.058878504672897194,0.06822429906542056,0.3691588785046729,0.0,0.4850467289719626,Frauenhaus,False,False,False,False
Autonomes Frauenhaus Lübeck,2249,Schleswig-Holstein,Kreisfreie Stadt,Lübeck,53.867549231603,10.687671111421,0.0,0.0,0.0,1.0,0.0,0.0,Frauenhaus,True,False,False,False
Autonomes Frauenhaus Lüneburg,2066,Niedersachsen,Landkreis,Lüneburg,53.2497728,10.4197721,0.0,0.0,0.0,1.0,0.0,0.0,Frauenhaus,False,False,False,False
Autonomes Frauenhaus Marburg,2025,Hessen,Landkreis,Marburg-Biedenkopf,50.8117327,8.7757742,0.001869158878504673,0.0308411214953271,0.09065420560747664,0.8766355140186916,0.0,0.0,Frauenhaus,False,False,False,False
Autonomes Frauenhaus Memmingen,2069,Bayern,Kreisfreie Stadt,Memmingen,47.9848507,10.1870278,0.014953271028037384,0.007476635514018692,0.011214953271028037,0.03364485981308411,0.03925233644859813,0.8934579439252337,Frauenhaus,False,False,False,False
Autonomes Frauenhaus Münster,2141,Nordrhein-Westfalen,Kreisfreie Stadt,Münster,51.956729697633,7.632398512595,0.001869158878504673,0.007476635514018692,0.0,0.9906542056074766,0.0,0.0,Frauenhaus,False,False,False,False
Autonomes Frauenhaus Neumünster,2063,Schleswig-Holstein,Kreisfreie Stadt,Neumünster,54.074247318196,9.984462815518,0.008411214953271028,0.028037383177570093,0.0,0.9504672897196261,0.013084112149532711,0.0,Frauenhaus,True,False,False,False
Autonomes Frauenhaus Oldenburg e.V.,2136,Niedersachsen,Kreisfreie Stadt,Oldenburg (Oldb),53.139855192327,8.227910833021,0.0,0.0,0.0,0.0,0.05700934579439252,0.9429906542056075,Frauenhaus,True,False,False,False
Autonomes Frauenhaus Osnabrück,2089,Niedersachsen,Kreisfreie Stadt,Osnabrück,52.274435951938,8.04727121527,0.026168224299065422,0.005607476635514018,0.0,0.9598130841121495,0.008411214953271028,0.0,Frauenhaus,False,True,False,False
Autonomes Frauenhaus Regensburg,2225,Bayern,Kreisfreie Stadt,Regensburg,48.98322105,12.151901371455,0.0,0.0,0.2607476635514019,0.5158878504672897,0.0,0.22336448598130842,Frauenhaus,True,False,False,False
Autonomes Frauenhaus Rheydt,2048,Nordrhein-Westfalen,Kreisfreie Stadt,Mönchengladbach,51.164802443583,6.446487203488,0.0,0.0009345794392523365,0.0009345794392523365,0.983177570093458,0.014953271028037384,0.0,Frauenhaus,False,False,False,False
Autonomes Frauenhaus Rostock,2163,Mecklenburg-Vorpommern,Landkreis,Rostock,54.052138471041,12.10428681682,0.0,0.026168224299065422,0.0,0.914018691588785,0.059813084112149535,0.0,Frauenhaus,False,False,False,False
Autonomes Frauenhaus Stuttgart,2078,Baden-Württemberg,Stadtkreis,Stuttgart,48.763984707357,9.174786993125,0.03271028037383177,0.004672897196261682,0.020560747663551402,0.9420560747663551,0.0,0.0,Frauenhaus,False,False,False,False
Autonomes Frauenhaus Trier,2137,Rheinland-Pfalz,Kreisfreie Stadt,Trier,49.749992,6.6371433,0.07476635514018691,0.014018691588785047,0.002803738317757009,0.7401869158878505,0.0,0.0,Frauenhaus,False,False,False,False
Autonomes Frauenhaus Tübingen,2012,Baden-Württemberg,Landkreis,Tübingen,48.52057725995,9.025027129822,0.0,0.07757009345794393,0.0,0.9112149532710281,0.011214953271028037,0.0,Frauenhaus,False,False,False,False
Autonomes Frauenhaus Wedel,2188,Schleswig-Holstein,Kreis,Pinneberg,53.583195431882,9.709891071281,0.0,0.0,0.0,0.9785046728971962,0.02149532710280374,0.0,Frauenhaus,False,False,False,False
BIG Hotline - Beratung und Vermittlung,2281,Berlin,Kreisfreie Stadt,Berlin,52.5170365,13.3888599,0.0,0.0,0.0,0.0,0.0,1.0,,False,False,False,False
Beratung für Frauen/Frauenschutzhaus Biberach,2360,Baden-Württemberg,Landkreis,Biberach,48.093565642996,9.786809486456,0.0,0.0,0.0,0.0,0.0,1.0,Frauenhaus,False,False,False,False
Beratungs- und Krisenzentrum für Frauen,2122,Brandenburg,Landkreis,Havelland,52.59248315,12.328108634457,0.0,0.0,0.0,0.0,0.0,1.0,Frauenhaus,False,False,False,False
Beratungsstelle für Betroffene von häuslicher Gewalt,2190,Mecklenburg-Vorpommern,Landkreis,Vorpommern-Rügen,54.4151606,13.425834,0.011214953271028037,0.0,0.0,0.985981308411215,0.002803738317757009,0.0,Schutzwohnung,False,False,False,False
Caritas Frauenhaus Ingolstadt,2260,Bayern,Kreisfreie Stadt,Ingolstadt,48.7630165,11.4250395,0.0,0.0,0.008411214953271028,0.1336448598130841,0.0,0.8579439252336448,Frauenhaus,True,False,False,False
Caritas Frauenhaus Landshut,2218,Bayern,Kreisfreie Stadt,Landshut,48.538071270726,12.162603569431,0.0,0.0,0.0,1.0,0.0,0.0,Frauenhaus,False,False,False,False
Caritas-Frauenhaus,2098,Berlin,Kreisfreie Stadt,Berlin,52.559654245315,13.370605613927,0.0,0.0,0.0,0.0,0.0,1.0,Frauenhaus,False,False,False,False
DRK KV Eichsfeld e.V. Frauenschutzwohnung Leinefelde,2282,Thüringen,Landkreis,Eichsfeld,51.425144533056,10.35842107336,0.0,0.0,0.0,0.0,0.0,1.0,Schutzwohnung,False,False,False,False
DRk Frauenschutzhaus Burg,2307,Sachsen-Anhalt,Landkreis,Jerichower Land,52.269276139014,11.852119516482,0.0,0.0,0.1261682242990654,0.8738317757009346,0.0,0.0,Frauenhaus,False,False,False,False
Frauen - und Kinderschutzhaus,2339,Hessen,Landkreis,Darmstadt-Dieburg,49.893363,8.836827,0.0,0.025233644859813085,0.007476635514018692,0.9626168224299065,0.004672897196261682,0.0,Frauenhaus,True,False,False,False
Frauen - und Kinderschutzhaus Filder,2080,Baden-Württemberg,Landkreis,Esslingen,48.663256354141,9.219398527189,0.001869158878504673,0.016822429906542057,0.0,0.9813084112149533,0.0,0.0,Frauenhaus,False,False,False,False
Frauen helfen Frauen Schwarzwald Baar e.V.,2262,Baden-Württemberg,Landkreis,Schwarzwald-Baar-Kreis,48.05923605,8.462281102255,0.0,0.0,0.0,0.0,0.0,1.0,Frauenhaus,False,False,False,False
Frauen helfen Frauen e.V.,2153,Nordrhein-Westfalen,Kreisfreie Stadt,Wuppertal,51.283777950273,7.143748029476,0.001869158878504673,0.004672897196261682,0.0065420560747663555,0.9682242990654205,0.018691588785046728,0.0,Frauenhaus,True,False,True,False
Frauen helfen Frauen e.V.,2275,Bayern,Landkreis,Bad Tölz-Wolfratshausen,47.915446386913,11.423220582099,0.029906542056074768,0.08598130841121496,0.03457943925233645,0.8336448598130841,0.014953271028037384,0.0,Frauenhaus,True,False,False,False
Frauen helfen Frauen e.V. Dinslaken,2145,Nordrhein-Westfalen,Kreis,Wesel,51.567639806596,6.747491084656,0.014018691588785047,0.008411214953271028,0.05700934579439252,0.902803738317757,0.017757009345794394,0.0,Frauenhaus,False,False,False,False
Frauen helfen Frauen e.V. Heidelberg,2152,Baden-Württemberg,Stadtkreis,Heidelberg,49.38167105,8.677039550252,0.0,0.09813084112149532,0.0,0.8757009345794392,0.026168224299065422,0.0,Frauenhaus,False,False,False,False
Frauen in Not-Frauenhaus,2061,Mecklenburg-Vorpommern,Kreisfreie Stadt,Schwerin,53.627833083723,11.405380088953,0.0,0.0,0.020560747663551402,0.7289719626168224,0.0,0.2504672897196262,Frauenhaus,True,True,True,False
"Frauen und Kinderschutzhaus Baden-Baden, Landkreis Rastatt",2432,Baden-Württemberg,Stadtkreis,Baden-Baden,48.766436,8.244599718105,0.0,0.06822429906542056,0.025233644859813085,0.6345794392523364,0.0,0.08598130841121496,Frauenhaus,False,False,False,False
Frauen- und Kinderhaus Offenbach,2077,Hessen,Kreisfreie Stadt,Offenbach am Main,50.104010086859,8.76674981179,0.0,0.02336448598130841,0.0,0.9757009345794393,0.0009345794392523365,0.0,Frauenhaus,False,False,False,False
Frauen- und Kinderhaus Salzwedel,2251,Sachsen-Anhalt,Landkreis,Altmarkkreis Salzwedel,52.851333063238,11.154713708822,0.0,0.09719626168224299,0.19345794392523363,0.3747663551401869,0.0,0.33457943925233646,Frauenhaus,False,False,False,False
Frauen- und Kinderhaus e.V. Uelzen,2084,Niedersachsen,Landkreis,Uelzen,52.964904113123,10.562643359678,0.0,0.0,0.0,0.0,0.0,1.0,Frauenhaus,False,False,False,False
Frauen- und Kinderhilfe Göppingen,2097,Baden-Württemberg,Landkreis,Göppingen,48.705872999684,9.649685019812999,0.0,0.03925233644859813,0.01588785046728972,0.08785046728971962,0.0,0.8570093457943925,Frauenhaus,False,False,False,False
Frauen- und Kinderschutzeinrichtung,2159,Baden-Württemberg,Landkreis,Ostalbkreis,48.8009955981,9.788703360852,0.0,0.0,0.03551401869158879,0.711214953271028,0.0,0.25327102803738316,Frauenhaus,False,False,False,False
Frauen- und Kinderschutzhaus,2180,Bayern,Kreisfreie Stadt,Regensburg,48.98322105,12.151901371455,0.0,0.0,0.0,0.9981308411214953,0.0,0.0,Frauenhaus,False,False,False,False
Frauen- und Kinderschutzhaus,2268,Baden-Württemberg,Landkreis,Ravensburg,47.764202227177,9.604661644156,0.011214953271028037,0.026168224299065422,0.0,0.5551401869158878,0.0,0.4074766355140187,Frauenhaus,False,False,False,False
Frauen- und Kinderschutzhaus,2365,Nordrhein-Westfalen,Kreis,Coesfeld,51.825388946298,7.269914071563,0.005607476635514018,0.0,0.2504672897196262,0.7439252336448599,0.0,0.0,Frauenhaus,False,True,False,False
Frauen- und Kinderschutzhaus,2423,Nordrhein-Westfalen,Kreis,Höxter,51.502765616284,9.117780029782,0.003738317757009346,0.013084112149532711,0.09252336448598131,0.797196261682243,0.002803738317757009,0.0009345794392523365,Frauenhaus,False,False,False,False
Frauen- und Kinderschutzhaus Aachen,2270,Nordrhein-Westfalen,Kreis,Städteregion Aachen,50.788047150729,6.097588101025,0.0,0.03271028037383177,0.1383177570093458,0.6663551401869159,0.16261682242990655,0.0,Frauenhaus,False,False,False,False
Frauen- und Kinderschutzhaus Ammerland Wesermarsch,2309,Niedersachsen,Landkreis,Ammerland,53.186117454157,8.002655371563,0.0,0.0,0.0,0.0,0.0,1.0,Frauenhaus,True,False,False,False
Frauen- und Kinderschutzhaus Ballenstedt,2280,Sachsen-Anhalt,Landkreis,Harz,51.722527,11.2290268,0.0,0.18598130841121496,0.0,0.3850467289719626,0.4289719626168224,0.0,Frauenhaus,True,False,False,False
Frauen- und Kinderschutzhaus Bay. Untermain,2120,Bayern,Kreisfreie Stadt,Aschaffenburg,49.977036120801,9.145832480125,0.0,0.0065420560747663555,0.0,0.9,0.0,0.09252336448598131,Frauenhaus,False,False,False,False
Frauen- und Kinderschutzhaus Bernburg (Saale),2227,Sachsen-Anhalt,Landkreis,Salzlandkreis,51.783018835759,11.754099790778,0.0,0.0,0.0,0.0,0.0,1.0,Frauenhaus,False,False,False,False
Frauen- und Kinderschutzhaus Dorsten,2115,Nordrhein-Westfalen,Kreis,Recklinghausen,51.654119376554,6.963879626385,0.059813084112149535,0.05327102803738318,0.0,0.8869158878504673,0.0,0.0,Frauenhaus,False,False,False,False
Frauen- und Kinderschutzhaus Freiburg,2092,Baden-Württemberg,Stadtkreis,Freiburg im Breisgau,48.0327354,7.857524774655,0.0,0.0,0.0,1.0,0.0,0.0,Frauenhaus,False,False,False,False
Frauen- und Kinderschutzhaus Hannover,2085,Niedersachsen,Landkreis,Region Hannover,52.365613497692,9.755097172235,0.0,0.0,0.0,0.0,0.0,1.0,Frauenhaus,False,False,False,False
Frauen- und Kinderschutzhaus Heckertstift,2008,Baden-Württemberg,Stadtkreis,Mannheim,49.492173028558,8.452588097834,0.06635514018691589,0.24299065420560748,0.0,0.5373831775700935,0.0,0.002803738317757009,Frauenhaus,False,False,False,False
Frauen- und Kinderschutzhaus Heidenheim,2239,Baden-Württemberg,Landkreis,Heidenheim,48.682679502339,10.139461490017,0.0,0.0,0.0,0.0,0.0,1.0,Frauenhaus,False,False,False,False
Frauen- und Kinderschutzhaus Heilbronn,2126,Baden-Württemberg,Stadtkreis,Heilbronn,49.140048540701,9.219636925251,0.0,0.014018691588785047,0.018691588785046728,0.9672897196261683,0.0,0.0,Frauenhaus,False,False,False,False
Frauen- und Kinderschutzhaus Konstanz,2408,Baden-Württemberg,Landkreis,Konstanz,47.681740847498,9.158822455441,0.010280373831775701,0.07850467289719626,0.22803738317757008,0.3336448598130841,0.019626168224299065,0.32242990654205606,Frauenhaus,False,False,False,False
Frauen- und Kinderschutzhaus Krefeld,2229,Nordrhein-Westfalen,Kreisfreie Stadt,Krefeld,51.331785882029,6.558523443055,0.009345794392523364,0.0691588785046729,0.013084112149532711,0.908411214953271,0.0,0.0,Frauenhaus,False,False,False,False
Frauen- und Kinderschutzhaus Kreis Viersen,2156,Nordrhein-Westfalen,Kreis,Viersen,51.253916413955,6.389885517278,0.0,0.001869158878504673,0.048598130841121495,0.9495327102803738,0.0,0.0,Frauenhaus,False,False,False,False
Frauen- und Kinderschutzhaus Landkreis Leipzig,2003,Sachsen,Landkreis,Leipzig,51.124032663272,12.506939561096,0.028037383177570093,0.2130841121495327,0.0,0.7588785046728972,0.0,0.0,Frauenhaus,False,False,False,False
Frauen- und Kinderschutzhaus Leipzig,2376,Sachsen,Kreisfreie Stadt,Leipzig,51.3406321,12.3747329,0.0,0.0,0.0,0.0,0.0,1.0,Frauenhaus,True,False,False,False
Frauen- und Kinderschutzhaus Merseburg,2030,Sachsen-Anhalt,Landkreis,Saalekreis,51.3568506,11.9904345,0.0,0.0,0.0,1.0,0.0,0.0,Frauenhaus,False,False,False,False
Frauen- und Kinderschutzhaus Moers,2330,Nordrhein-Westfalen,Kreis,Wesel,51.446276386047,6.636759749098,0.005607476635514018,0.0,0.024299065420560748,0.9700934579439252,0.0,0.0,Frauenhaus,False,False,False,False
Frauen- und Kinderschutzhaus Neckar-Odenwald-Kreis,2234,Baden-Württemberg,Landkreis,Neckar-Odenwald-Kreis,49.3489153,9.1293829,0.07383177570093458,0.0,0.022429906542056073,0.11214953271028037,0.020560747663551402,0.7710280373831776,Frauenhaus,False,False,False,False
Frauen- und Kinderschutzhaus Neubrandenburg,2216,Mecklenburg-Vorpommern,Landkreis,Mecklenburgische Seenplatte,53.557445799999996,13.2602781,0.0,0.0,0.29439252336448596,0.21588785046728973,0.0,0.4897196261682243,Frauenhaus,False,False,False,False
Frauen- und Kinderschutzhaus Pirna,2072,Sachsen,Landkreis,Sächsische Schweiz-Osterzgebirge,50.9624776,13.9284303,0.0,0.0,0.0,0.0,0.0,1.0,Frauenhaus,False,False,False,False
Frauen- und Kinderschutzhaus Radebeul,2045,Sachsen,Landkreis,Meißen,51.1031702,13.6215949,0.0,0.0,0.791588785046729,0.0,0.0,0.20841121495327103,Frauenhaus,False,False,False,False
Frauen- und Kinderschutzhaus Radolfzell,2258,Baden-Württemberg,Landkreis,Konstanz,47.7409243,8.955847834383,0.0,0.004672897196261682,0.028037383177570093,0.6719626168224299,0.0,0.2953271028037383,Frauenhaus,False,False,False,False
Frauen- und Kinderschutzhaus Rems-Murr-Kreis,2206,Baden-Württemberg,Landkreis,Rems-Murr-Kreis,48.830787760572,9.325598847299,0.0,0.0,0.018691588785046728,0.5214953271028038,0.0,0.45981308411214955,Frauenhaus,True,False,False,False
Frauen- und Kinderschutzhaus Sangerhausen,2058,Sachsen-Anhalt,Landkreis,Mansfeld-Südharz,51.4798304,11.2943896,0.0,0.005607476635514018,0.5130841121495328,0.27289719626168224,0.0,0.20841121495327103,Frauenhaus,False,False,False,False
Frauen- und Kinderschutzhaus Staßfurt,2175,Sachsen-Anhalt,Landkreis,Salzlandkreis,51.846982652569,11.592657358624,0.0,0.0,0.0,0.06728971962616823,0.0,0.9327102803738317,Frauenhaus,False,False,False,False
Frauen- und Kinderschutzhaus Troisdorf,2130,Nordrhein-Westfalen,Kreis,Rhein-Sieg-Kreis,50.813948,7.1508684,0.009345794392523364,0.018691588785046728,0.004672897196261682,0.9635514018691589,0.003738317757009346,0.0,Frauenhaus,True,False,False,False
Frauen- und Kinderschutzhaus Waldshut,2101,Baden-Württemberg,Landkreis,Waldshut,47.635706238259,8.272258305191,0.0,0.0,0.0,0.0,0.0,1.0,Frauenhaus,False,False,False,False
Frauen- und Kinderschutzhaus des Landkreises Oldenburg,2429,Niedersachsen,Landkreis,Oldenburg,52.903874494874,8.445246410384,0.0,0.0,0.0,0.0,0.0,0.8878504672897196,Frauenhaus,False,False,False,False
Frauen- und Kinderschutzhaus für den Kreis Mettmann,2111,Nordrhein-Westfalen,Kreis,Mettmann,51.255178427612,6.968892885788,0.005607476635514018,0.004672897196261682,0.03644859813084112,0.9495327102803738,0.003738317757009346,0.0,Frauenhaus,False,False,False,False
Frauen- und Kinderschutzhaus im Hohenlohekreis,2222,Baden-Württemberg,Landkreis,Hohenlohekreis,49.181288581991,9.637402053841999,0.03644859813084112,0.1588785046728972,0.0,0.8046728971962617,0.0,0.0,Frauenhaus,False,False,False,False
Frauen- und Kinderschutzhäuser Münster,2226,Nordrhein-Westfalen,Kreisfreie Stadt,Münster,51.964715367909,7.65173880509,0.07757009345794393,0.13457943925233645,0.020560747663551402,0.7654205607476635,0.001869158878504673,0.0,Frauenhaus,False,False,False,False
Frauen- und Kinderschutzwohnung Vogtlandkreis,2351,Sachsen,Landkreis,Vogtlandkreis,50.50646945,12.404751585779,0.0,0.0,0.0,0.0,0.0,1.0,Schutzwohnung,False,False,False,False
Frauen-und Kinderschutzhaus Aschersleben,2291,Sachsen-Anhalt,Landkreis,Salzlandkreis,51.7559549,11.462134,0.0,0.25794392523364484,0.0,0.7420560747663552,0.0,0.0,Frauenhaus,True,False,False,False
Frauen-und Kinderschutzhaus Schwäbisch Hall,2176,Baden-Württemberg,Landkreis,Schwäbisch Hall,49.112065275931,9.732801718754,0.0,0.08691588785046729,0.007476635514018692,0.7214953271028037,0.0,0.18411214953271027,Frauenhaus,True,False,False,False
Frauen-und Kinderschutzhaus Tuttlingen,2254,Baden-Württemberg,Landkreis,Tuttlingen,47.978972871,8.814629638902,0.0,0.003738317757009346,0.052336448598130844,0.9439252336448598,0.0,0.0,Frauenhaus,False,False,False,False
Frauen-und Kinderschutzwohnung &quotZuflucht&quot Lk Görlitz,2338,Sachsen,Landkreis,Görlitz,50.883994699653,14.806442202914,0.0,0.0,0.0,0.0,0.0,1.0,Schutzwohnung,False,False,False,False
Frauenhaus,2109,Brandenburg,Landkreis,Elbe-Elster,51.628227951142,13.713308618555,0.020560747663551402,0.21588785046728973,0.0,0.7626168224299066,0.0009345794392523365,0.0,Frauenhaus,False,False,False,False
Frauenhaus,2142,Bayern,Kreisfreie Stadt,Bayreuth,49.9425551,11.5744543,0.017757009345794394,0.025233644859813085,0.0,0.9570093457943926,0.0,0.0,Frauenhaus,False,False,False,False
Frauenhaus,2192,Bayern,Kreisfreie Stadt,Bamberg,49.9006357,10.8997336,0.0,0.0,0.0,0.811214953271028,0.0,0.18878504672897195,Frauenhaus,False,False,False,False
Frauenhaus,2341,Baden-Württemberg,Stadtkreis,Karlsruhe,49.0068705,8.4034195,0.0,0.003738317757009346,0.10093457943925234,0.6214953271028038,0.012149532710280374,0.2616822429906542,Frauenhaus,False,False,False,False
Frauenhaus,2401,Niedersachsen,Landkreis,Nienburg (Weser),52.6380924,9.2084155,0.0,0.0,0.0,1.0,0.0,0.0,Frauenhaus,False,False,False,False
Frauenhaus,2407,Hessen,Landkreis,Groß-Gerau,49.9194456,8.4852426,0.0,0.0,0.0,0.9934579439252337,0.0,0.0,Frauenhaus,False,False,False,False
Frauenhaus AWO Kreisverband Braunschweig e.V.,2160,Niedersachsen,Kreisfreie Stadt,Braunschweig,52.2646577,10.5236066,0.0,0.0,0.0,0.0,0.0,1.0,Frauenhaus,True,False,False,False
Frauenhaus Ahrweiler,2412,Rheinland-Pfalz,Landkreis,Ahrweiler,50.541523495852,7.120312435242,0.005607476635514018,0.0,0.052336448598130844,0.8794392523364486,0.04953271028037383,0.0,Frauenhaus,False,False,False,False
Frauenhaus Alb-Donau-Kreis,2314,Baden-Württemberg,Stadtkreis,Ulm,48.401878420682,9.995374632586,0.0,0.0,0.0,0.0,0.0,1.0,Frauenhaus,False,False,False,False
Frauenhaus Alsdorf,2244,Nordrhein-Westfalen,Kreis,Städteregion Aachen,50.871672283047,6.208659018565,0.002803738317757009,0.03925233644859813,0.09158878504672897,0.8392523364485981,0.027102803738317756,0.0,Frauenhaus,False,False,False,False
Frauenhaus Ansbach,2213,Bayern,Kreisfreie Stadt,Ansbach,49.298815058048,10.573480723219,0.0,0.0,0.0,0.0,0.0,1.0,Frauenhaus,False,False,False,False
Frauenhaus Arnsberg,2182,Nordrhein-Westfalen,Kreis,Hochsauerlandkreis,51.407732617724,8.051075898828,0.0,0.002803738317757009,0.05514018691588785,0.8672897196261682,0.07476635514018691,0.0,Frauenhaus,False,False,False,False
Frauenhaus Augsburg,2243,Bayern,Kreisfreie Stadt,Augsburg,48.3668041,10.8986971,0.0,0.009345794392523364,0.0,0.1252336448598131,0.0,0.8644859813084113,Frauenhaus,False,True,False,False
Frauenhaus Bad Hersfeld,2114,Hessen,Landkreis,Hersfeld-Rotenburg,50.869468708997,9.714945143903,0.0,0.0,0.009345794392523364,0.9532710280373832,0.037383177570093455,0.0,Frauenhaus,False,False,False,False
Frauenhaus Bad Kreuznach,2053,Rheinland-Pfalz,Landkreis,Bad Kreuznach,49.8428494,7.8667379,0.0,0.014018691588785047,0.04766355140186916,0.9149532710280374,0.02336448598130841,0.0,Frauenhaus,False,False,False,False
Frauenhaus Bergisch Gladbach,2067,Nordrhein-Westfalen,Kreis,Rheinisch-Bergischer Kreis,50.992223921021,7.153430002869,0.0009345794392523365,0.0,0.07663551401869159,0.914018691588785,0.008411214953271028,0.0,Frauenhaus,False,False,False,False
Frauenhaus Bergstraße,2043,Hessen,Landkreis,Bergstraße,49.688967095718,8.617601744187,0.001869158878504673,0.02149532710280374,0.0,0.9514018691588785,0.025233644859813085,0.0,Frauenhaus,False,False,False,False
Frauenhaus Bitterfeld-Wolfen,2295,Sachsen-Anhalt,Landkreis,Anhalt-Bitterfeld,51.641033099699,12.307324408998,0.017757009345794394,0.40841121495327104,0.0,0.5738317757009346,0.0,0.0,Frauenhaus,False,False,False,False
Frauenhaus Bocholt,2240,Nordrhein-Westfalen,Kreis,Borken,51.851967818808,6.587526413286,0.011214953271028037,0.11588785046728972,0.0,0.8728971962616823,0.0,0.0,Frauenhaus,True,False,False,False
Frauenhaus Bochum,2283,Nordrhein-Westfalen,Kreisfreie Stadt,Bochum,51.4818111,7.2196635,0.019626168224299065,0.027102803738317756,0.0,0.9299065420560748,0.02336448598130841,0.0,Frauenhaus,False,False,False,False
Frauenhaus Bonn - Frauen helfen Frauen e.V.,2167,Nordrhein-Westfalen,Kreisfreie Stadt,Bonn,50.729451611876,7.083363726367,0.0,0.007476635514018692,0.0,0.9906542056074766,0.001869158878504673,0.0,Frauenhaus,False,False,False,False
Frauenhaus Bremerhaven,2369,Bremen,Kreisfreie Stadt,Bremerhaven,53.529776471842,8.622328260819,0.0,0.0,0.0,0.0,0.0,1.0,Frauenhaus,False,False,False,False
Frauenhaus Burghausen,2252,Bayern,Landkreis,Altötting,48.170001152799,12.82481067792,0.0,0.0,0.07383177570093458,0.597196261682243,0.0,0.32897196261682243,Frauenhaus,False,False,False,False
Frauenhaus Chemnitz,2099,Sachsen,Kreisfreie Stadt,Chemnitz,50.832365999642,12.920172846924,0.0,0.0,0.197196261682243,0.0,0.0,0.802803738317757,Frauenhaus,True,False,False,False
Frauenhaus Coburg,2224,Bayern,Kreisfreie Stadt,Coburg,50.257505531706,10.961128141975,0.0,0.0,0.1280373831775701,0.8710280373831776,0.0,0.0,Frauenhaus,False,False,False,False
Frauenhaus Dachau,2246,Bayern,Landkreis,Dachau,48.259621637411,11.448716677201,0.0,0.0,0.0,0.0,0.0,0.9990654205607477,Frauenhaus,False,False,False,False
Frauenhaus Darmstadt,2070,Hessen,Kreisfreie Stadt,Darmstadt,49.885947405614,8.654001172839,0.0,0.016822429906542057,0.03457943925233645,0.9485981308411215,0.0,0.0,Frauenhaus,False,False,False,False
Frauenhaus Datteln,2169,Nordrhein-Westfalen,Kreis,Recklinghausen,51.651767115463,7.328764232949,0.0,0.0,0.15140186915887852,0.8485981308411215,0.0,0.0,Frauenhaus,False,False,False,False
Frauenhaus Dessau-Roßlau,2304,Sachsen-Anhalt,Kreisfreie Stadt,Dessau-Roßlau,51.8311104,12.2429261,0.0,0.0,0.0,0.0,0.0,1.0,Frauenhaus,False,False,False,False
Frauenhaus Diakonisches Werk Hamburg,2366,Hamburg,Kreisfreie Stadt,Hamburg,53.596621886976,10.018615715002,0.0,0.0,0.0,0.0,0.0,1.0,Frauenhaus,False,False,False,False
Frauenhaus Dithmarschen,2395,Schleswig-Holstein,Kreis,Dithmarschen,54.193570221951,9.100838263545,0.0,0.014953271028037384,0.0,0.5149532710280373,0.0,0.4700934579439252,Frauenhaus,False,False,False,False
Frauenhaus Donnersbergkreis,2221,Rheinland-Pfalz,Landkreis,Donnersbergkreis,49.6669591,7.9801167,0.022429906542056073,0.04018691588785047,0.0,0.9373831775700935,0.0,0.0,Frauenhaus,False,False,False,False
Frauenhaus Duisburg gGmbH,2203,Nordrhein-Westfalen,Kreisfreie Stadt,Duisburg,51.434999,6.759562,0.008411214953271028,0.024299065420560748,0.044859813084112146,0.8934579439252337,0.02897196261682243,0.0,Frauenhaus,False,True,False,False
Frauenhaus Düsseldorf,2419,Nordrhein-Westfalen,Kreisfreie Stadt,Düsseldorf,51.2418056,6.8082556,0.0,0.0,0.020560747663551402,0.9467289719626168,0.0009345794392523365,0.0,Frauenhaus,False,False,False,False
Frauenhaus EN,2073,Nordrhein-Westfalen,Kreis,Ennepe-Ruhr-Kreis,51.4438167,7.3417483,0.001869158878504673,0.03551401869158879,0.0,0.9588785046728971,0.003738317757009346,0.0,Frauenhaus,False,False,False,False
Frauenhaus Eisenach,2105,Thüringen,Kreisfreie Stadt,Eisenach,50.990688888944,10.304182716389,0.0,0.0,0.3663551401869159,0.2514018691588785,0.0,0.3822429906542056,Frauenhaus,False,False,False,False
Frauenhaus Emden,2088,Niedersachsen,Kreisfreie Stadt,Emden,53.366076745762,7.207059748026,0.0,0.0,0.0,0.0,0.0,1.0,Frauenhaus,False,False,False,False
Frauenhaus Erbach,2261,Hessen,Landkreis,Odenwaldkreis,49.653690533425,8.995164437466,0.0,0.0,0.014018691588785047,0.985981308411215,0.0,0.0,Frauenhaus,True,False,False,False
Frauenhaus Erding,2362,Bayern,Landkreis,Erding,48.304271224419,11.90594429271,0.0,0.2177570093457944,0.020560747663551402,0.680373831775701,0.08130841121495327,0.0,Frauenhaus,False,True,False,False
Frauenhaus Erfurt,2149,Thüringen,Kreisfreie Stadt,Erfurt,50.97579155,11.020273533775,0.0,0.0,0.059813084112149535,0.9401869158878504,0.0,0.0,Frauenhaus,False,False,False,False
Frauenhaus Espelkamp,2184,Nordrhein-Westfalen,Kreis,Minden-Lübbecke,52.375750324544,8.632890486707,0.001869158878504673,0.1252336448598131,0.2336448598130841,0.49439252336448597,0.14485981308411214,0.0,Frauenhaus,True,False,False,False
Frauenhaus Essen,2143,Nordrhein-Westfalen,Kreisfreie Stadt,Essen,51.438379602305,7.009099068551,0.005607476635514018,0.008411214953271028,0.0,0.985981308411215,0.0,0.0,Frauenhaus,True,True,False,False
Frauenhaus Esslingen,2065,Baden-Württemberg,Landkreis,Esslingen,48.741421196937,9.310220283594,0.014953271028037384,0.07289719626168224,0.0,0.9112149532710281,0.0009345794392523365,0.0,Frauenhaus,False,False,False,False
Frauenhaus FFB,2116,Bayern,Landkreis,Fürstenfeldbruck,48.1717756,11.2623294,0.0,0.0,0.0,0.0,0.0,1.0,Frauenhaus,True,False,False,False
Frauenhaus Flensburg,2255,Schleswig-Holstein,Kreisfreie Stadt,Flensburg,54.79485029629,9.423378659978,0.002803738317757009,0.0009345794392523365,0.0,0.9962616822429906,0.0,0.0,Frauenhaus,False,False,False,False
Frauenhaus Frankenthal,2123,Rheinland-Pfalz,Kreisfreie Stadt,Frankenthal (Pfalz),49.5377072,8.3560768,0.0,0.0,0.0,0.9962616822429906,0.003738317757009346,0.0,Frauenhaus,True,False,False,False
Frauenhaus Frankfurt (Oder),2248,Brandenburg,Kreisfreie Stadt,Frankfurt (Oder),52.343312285202,14.546619410747,0.08130841121495327,0.0,0.0,0.9186915887850468,0.0,0.0,Frauenhaus,False,False,False,False
Frauenhaus Freising,2422,Bayern,Landkreis,Freising,48.399763713312,11.735230175261,0.04299065420560748,0.0,0.016822429906542057,0.20373831775700935,0.0,0.6644859813084112,Frauenhaus,False,False,False,False
Frauenhaus Freudenstadt,2215,Baden-Württemberg,Landkreis,Freudenstadt,48.473534333796,8.420503660913,0.0,0.011214953271028037,0.025233644859813085,0.9299065420560748,0.0,0.03364485981308411,Frauenhaus,False,False,False,False
Frauenhaus Fulda,2294,Hessen,Landkreis,Fulda,50.555220369978,9.649742916617,0.0,0.002803738317757009,0.0,0.9962616822429906,0.0009345794392523365,0.0,Frauenhaus,False,False,False,False
Frauenhaus Fürstenwalde,2388,Brandenburg,Landkreis,Oder-Spree,52.358683193219,14.065068707361,0.0,0.0,0.0,0.0,0.0,1.0,Frauenhaus,False,False,False,False
Frauenhaus Fürth,2301,Bayern,Kreisfreie Stadt,Fürth,49.4668322,10.9852942,0.0,0.0,0.0,0.9878504672897196,0.012149532710280374,0.0,Frauenhaus,False,False,False,False
Frauenhaus Gelsenkirchen,2112,Nordrhein-Westfalen,Kreisfreie Stadt,Gelsenkirchen,51.540968835085,7.111938609989,0.0,0.0009345794392523365,0.04392523364485981,0.9551401869158879,0.0,0.0,Frauenhaus,False,False,False,False
Frauenhaus Gera,2421,Thüringen,Kreisfreie Stadt,Gera,50.8772301,12.0796208,0.0,0.0,0.0,0.0,0.0,0.9672897196261683,Frauenhaus,False,False,False,False
Frauenhaus Gotha,2026,Thüringen,Landkreis,Gotha,50.943234424969,10.717486357956,0.0,0.2383177570093458,0.0,0.6467289719626168,0.0,0.11495327102803739,Frauenhaus,False,False,False,False
Frauenhaus Greifswald,2146,Mecklenburg-Vorpommern,Landkreis,Vorpommern-Greifswald,54.08939506011,13.379945601414,0.0009345794392523365,0.3719626168224299,0.0,0.0065420560747663555,0.20654205607476636,0.41401869158878507,Frauenhaus,False,False,False,False
Frauenhaus Gütersloh,2267,Nordrhein-Westfalen,Kreis,Gütersloh,51.9063997,8.3782078,0.0,0.0,0.05046728971962617,0.9495327102803738,0.0,0.0,Frauenhaus,False,False,False,False
Frauenhaus Hagar,2155,Bayern,Kreisfreie Stadt,Nürnberg,49.454987367495,11.078057924511,0.0,0.0,0.0,0.0,0.0,1.0,Frauenhaus,False,False,False,False
Frauenhaus Hameln e.V.,2113,Niedersachsen,Landkreis,Hameln-Pyrmont,52.105920892881,9.364572592101,0.0,0.0691588785046729,0.10747663551401869,0.8233644859813084,0.0,0.0,Frauenhaus,True,False,False,False
Frauenhaus Hamm,2171,Nordrhein-Westfalen,Kreisfreie Stadt,Hamm,51.6697042432,7.831726274505,0.008411214953271028,0.15140186915887852,0.05046728971962617,0.7813084112149533,0.008411214953271028,0.0,Frauenhaus,False,False,False,False
Frauenhaus Hanau,2055,Hessen,Landkreis,Main-Kinzig-Kreis,50.121842157395,8.93035691488,0.012149532710280374,0.010280373831775701,0.001869158878504673,0.974766355140187,0.0009345794392523365,0.0,Frauenhaus,False,False,False,False
Frauenhaus Hannover - Frauen helfen Frauen e.V.,2013,Niedersachsen,Landkreis,Region Hannover,52.377210097868,9.745326084829,0.0,0.03644859813084112,0.0,0.9635514018691589,0.0,0.0,Frauenhaus,True,False,False,False
Frauenhaus Hartengrube,2284,Schleswig-Holstein,Kreisfreie Stadt,Lübeck,53.861924849136,10.683346452091,0.0,0.0009345794392523365,0.0,0.9990654205607477,0.0,0.0,Frauenhaus,False,False,False,False
Frauenhaus Herford,2033,Nordrhein-Westfalen,Kreis,Herford,52.1196393,8.6637749,0.005607476635514018,0.002803738317757009,0.014953271028037384,0.9607476635514018,0.01588785046728972,0.0,Frauenhaus,False,False,False,False
Frauenhaus Herne,2032,Nordrhein-Westfalen,Kreisfreie Stadt,Herne,51.5435523,7.2176455,0.02897196261682243,0.024299065420560748,0.022429906542056073,0.914018691588785,0.010280373831775701,0.0,Frauenhaus,True,False,False,False
Frauenhaus Herten,2157,Nordrhein-Westfalen,Kreisfreie Stadt,Gelsenkirchen,51.572645954604,7.131574084656,0.0,0.0,0.1560747663551402,0.8439252336448598,0.0,0.0,Frauenhaus,False,False,False,False
Frauenhaus Hildesheim e.V.,2194,Niedersachsen,Landkreis,Hildesheim,52.152522919656,9.950775478638,0.13177570093457944,0.18037383177570093,0.0,0.6700934579439253,0.017757009345794394,0.0,Frauenhaus,True,False,False,False
Frauenhaus Hochfranken,2119,Bayern,Landkreis,Wunsiedel i. Fichtelgebirge,50.162945060814,12.134807622047,0.0,0.0,0.8495327102803738,0.1411214953271028,0.009345794392523364,0.0,Frauenhaus,False,False,False,False
Frauenhaus Idar-Oberstein,2183,Rheinland-Pfalz,Landkreis,Birkenfeld,49.699458006547,7.321442009631,0.13738317757009347,0.020560747663551402,0.012149532710280374,0.8299065420560747,0.0,0.0,Frauenhaus,False,False,False,False
Frauenhaus Kassel,2165,Hessen,Kreisfreie Stadt,Kassel,51.273161334306,9.466445816736,0.0,0.0,0.05794392523364486,0.9420560747663551,0.0,0.0,Frauenhaus,True,True,False,False
Frauenhaus Kirchheim,2173,Baden-Württemberg,Landkreis,Esslingen,48.645195802054,9.452899259968,0.002803738317757009,0.10186915887850467,0.0,0.8953271028037383,0.0,0.0,Frauenhaus,True,False,False,False
Frauenhaus Koblenz,2413,Rheinland-Pfalz,Kreisfreie Stadt,Koblenz,50.350559513859,7.592017311078,0.001869158878504673,0.0,0.002803738317757009,0.9794392523364486,0.002803738317757009,0.0,Frauenhaus,False,False,False,False
Frauenhaus Köthen,2161,Sachsen-Anhalt,Landkreis,Anhalt-Bitterfeld,51.75046975,11.988520313845,0.0,0.0,0.06261682242990654,0.001869158878504673,0.0,0.9355140186915888,Frauenhaus,False,False,False,False
Frauenhaus Landau,2332,Rheinland-Pfalz,Kreisfreie Stadt,Landau in der Pfalz,49.19988782812,8.113401055813,0.0,0.019626168224299065,0.027102803738317756,0.9532710280373832,0.0,0.0,Frauenhaus,False,False,False,False
Frauenhaus Lauchhammer,2346,Brandenburg,Landkreis,Oberspreewald-Lausitz,51.4957085,13.7605753,0.3130841121495327,0.5242990654205607,0.0,0.014018691588785047,0.0,0.1485981308411215,Frauenhaus,False,False,False,False
Frauenhaus Lila Villa e.V.,2409,Rheinland-Pfalz,Landkreis,Bad Dürkheim,49.4612447,8.1705981,0.04018691588785047,0.017757009345794394,0.0,0.9289719626168225,0.0,0.0,Frauenhaus,False,False,False,False
Frauenhaus Lippe,2238,Nordrhein-Westfalen,Kreis,Lippe,51.938132853507,8.87196878474,0.03551401869158879,0.04299065420560748,0.02336448598130841,0.8794392523364486,0.018691588785046728,0.0,Frauenhaus,False,False,False,False
Frauenhaus Ludwigsburg,2223,Baden-Württemberg,Landkreis,Ludwigsburg,48.905138982478,9.175657488432,0.12710280373831775,0.06728971962616823,0.0,0.802803738317757,0.002803738317757009,0.0,Frauenhaus,True,True,True,False
Frauenhaus Ludwigshafen,2415,Rheinland-Pfalz,Kreisfreie Stadt,Ludwigshafen am Rhein,49.479714236326,8.449962862506,0.0,0.002803738317757009,0.0,0.9710280373831776,0.0,0.013084112149532711,Frauenhaus,False,False,False,False
Frauenhaus Lüchow,2371,Niedersachsen,Landkreis,Lüchow-Dannenberg,52.969714748761,11.15518272981,0.0,0.0,0.0,0.0,0.0,1.0,Frauenhaus,False,False,False,False
Frauenhaus Mainz,2411,Rheinland-Pfalz,Kreisfreie Stadt,Mainz,49.986824590308,8.271431806591,0.003738317757009346,0.0,0.0,0.983177570093458,0.0,0.0,Frauenhaus,False,False,False,False
Frauenhaus Mayen-Koblenz,2426,Rheinland-Pfalz,Landkreis,Mayen-Koblenz,50.325712347282,7.2284572929,0.0009345794392523365,0.005607476635514018,0.07850467289719626,0.7785046728971963,0.028037383177570093,0.0,Frauenhaus,True,False,True,False
Frauenhaus Meiningen,2057,Thüringen,Landkreis,Schmalkalden-Meiningen,50.565930470512,10.408470644478,0.0,0.0,0.3121495327102804,0.44018691588785047,0.0,0.24766355140186916,Frauenhaus,False,False,False,False
Frauenhaus Mönchengladbach,2337,Nordrhein-Westfalen,Kreisfreie Stadt,Mönchengladbach,51.201782299521,6.421618467145,0.011214953271028037,0.002803738317757009,0.04392523364485981,0.9420560747663551,0.0,0.0,Frauenhaus,False,False,False,False
Frauenhaus München,2387,Bayern,Kreisfreie Stadt,München,48.1371079,11.5753822,0.0,0.0,0.0,0.0,0.0,1.0,Frauenhaus,False,False,False,False
Frauenhaus Neunkirchen,2010,Saarland,Landkreis,Neunkirchen,49.37167025,7.207534594691,0.0,0.011214953271028037,0.28598130841121494,0.702803738317757,0.0,0.0,Frauenhaus,False,False,False,False
Frauenhaus Neuruppin,2340,Brandenburg,Landkreis,Ostprignitz-Ruppin,52.920470743076,12.805888514342,0.0,0.0,0.0,0.0,0.0,0.9934579439252337,Frauenhaus,False,False,True,False
Frauenhaus Neustadt,2201,Rheinland-Pfalz,Kreisfreie Stadt,Neustadt an der Weinstraße,49.349491832835,8.141965744074,0.0,0.009345794392523364,0.0,0.9775700934579439,0.013084112149532711,0.0,Frauenhaus,False,False,False,False
Frauenhaus Norderstedt,2303,Schleswig-Holstein,Kreis,Segeberg,53.7089898,9.9891914,0.0,0.03925233644859813,0.010280373831775701,0.5289719626168224,0.008411214953271028,0.4130841121495327,Frauenhaus,True,False,False,False
Frauenhaus Nürnberg,2147,Bayern,Kreisfreie Stadt,Nürnberg,49.454987367495,11.078057924511,0.03177570093457944,0.13177570093457944,0.0,0.8261682242990654,0.010280373831775701,0.0,Frauenhaus,False,False,False,False
Frauenhaus Oberhausen,2134,Nordrhein-Westfalen,Kreisfreie Stadt,Oberhausen,51.466433645076,6.858153386625,0.0,0.0,0.0,1.0,0.0,0.0,Frauenhaus,False,False,False,False
Frauenhaus Oberursel,2214,Hessen,Landkreis,Hochtaunuskreis,50.203012037124,8.578525319621999,0.009345794392523364,0.0009345794392523365,0.038317757009345796,0.9252336448598131,0.026168224299065422,0.0,Frauenhaus,True,False,False,False
Frauenhaus Olpe,2047,Nordrhein-Westfalen,Kreis,Olpe,51.030930004953,7.855977750318,0.0,0.0,0.13177570093457944,0.8654205607476636,0.002803738317757009,0.0,Frauenhaus,False,False,False,False
Frauenhaus Ortenau,2235,Baden-Württemberg,Landkreis,Ortenaukreis,48.472922532591,7.96749836209,0.0,0.037383177570093455,0.0,0.0,0.0,0.9626168224299065,Frauenhaus,True,False,False,False
Frauenhaus Ostholstein,2189,Schleswig-Holstein,Kreis,Ostholstein,54.119768481237,10.631741869357,0.001869158878504673,0.02149532710280374,0.0,0.9196261682242991,0.009345794392523364,0.04766355140186916,Frauenhaus,True,False,False,False
Frauenhaus Paderborn,2023,Nordrhein-Westfalen,Kreis,Paderborn,51.711630197753,8.754784819168,0.0,0.0065420560747663555,0.05046728971962617,0.9205607476635514,0.022429906542056073,0.0,Frauenhaus,False,False,False,False
Frauenhaus Passau,2125,Bayern,Kreisfreie Stadt,Passau,48.57363833286,13.451816048151,0.0,0.5672897196261683,0.001869158878504673,0.0,0.0,0.42990654205607476,Frauenhaus,True,False,False,False
Frauenhaus Pinneberg,2264,Schleswig-Holstein,Kreis,Pinneberg,53.651379970069,9.789546578719,0.0,0.002803738317757009,0.0,0.997196261682243,0.0,0.0,Frauenhaus,False,False,False,False
Frauenhaus Pirmasens,2417,Rheinland-Pfalz,Kreisfreie Stadt,Pirmasens,49.206297144295,7.5975454991269995,0.025233644859813085,0.0,0.15140186915887852,0.797196261682243,0.0,0.0,Frauenhaus,False,False,False,False
Frauenhaus Potsdam,2298,Brandenburg,Kreisfreie Stadt,Potsdam,52.401823067332,13.060633141753,0.0,0.0,0.0,0.0,0.0,1.0,Frauenhaus,False,False,False,False
Frauenhaus Recklinghausen e.V.,2380,Nordrhein-Westfalen,Kreis,Recklinghausen,51.562289600477,7.197057131299,0.0,0.008411214953271028,0.016822429906542057,0.974766355140187,0.0,0.0,Frauenhaus,False,False,False,False
Frauenhaus Remscheid,2356,Nordrhein-Westfalen,Kreis,Rheinisch-Bergischer Kreis,51.1463909,7.2148641,0.003738317757009346,0.005607476635514018,0.012149532710280374,0.9728971962616823,0.005607476635514018,0.0,Frauenhaus,True,False,True,False
Frauenhaus Rendsburg gGmbH,2191,Schleswig-Holstein,Kreis,Rendsburg-Eckernförde,54.308288610642,9.658791079076,0.08598130841121496,0.09439252336448598,0.0,0.7644859813084112,0.04205607476635514,0.013084112149532711,Frauenhaus,True,False,False,False
Frauenhaus Reutlingen,2245,Baden-Württemberg,Landkreis,Reutlingen,48.490244306328,9.22265822019,0.0,0.0,0.0,0.0,0.0,1.0,Frauenhaus,False,False,False,False
Frauenhaus Rhein - Erftkreis e.V.,2076,Nordrhein-Westfalen,Kreis,Rhein-Erft-Kreis,50.8072763,6.8330117999999995,0.004672897196261682,0.002803738317757009,0.06822429906542056,0.9242990654205607,0.0,0.0,Frauenhaus,False,False,False,False
Frauenhaus Rheine,2313,Nordrhein-Westfalen,Kreis,Steinfurt,52.275648335048,7.43452908728,0.009345794392523364,0.0,0.09906542056074766,0.8635514018691589,0.028037383177570093,0.0,Frauenhaus,False,False,False,False
Frauenhaus Rodgau,2166,Hessen,Landkreis,Offenbach,50.021737483593,8.882036802864,0.0,0.012149532710280374,0.0,0.985981308411215,0.001869158878504673,0.0,Frauenhaus,False,False,False,False
Frauenhaus Rosenheim/Traunstein,2269,Bayern,Kreisfreie Stadt,Rosenheim,47.8571272,12.1181047,0.044859813084112146,0.46074766355140184,0.14953271028037382,0.34392523364485983,0.0,0.0,Frauenhaus,False,False,False,False
Frauenhaus Saarbrücken,2009,Saarland,Landkreis,Regionalverband Saarbrücken,49.234338155586,6.986639524139,0.0,0.0,0.14672897196261683,0.8532710280373832,0.0,0.0,Frauenhaus,False,False,False,False
Frauenhaus Saarlouis,2217,Saarland,Landkreis,Saarlouis,49.319469368893,6.753084518304,0.0,0.0,0.19906542056074766,0.8009345794392523,0.0,0.0,Frauenhaus,False,False,False,False
Frauenhaus Salzgitter,2128,Niedersachsen,Kreisfreie Stadt,Salzgitter,52.159624591925,10.331093344387,0.16261682242990655,0.17757009345794392,0.0,0.03551401869158879,0.02336448598130841,0.6009345794392523,Frauenhaus,False,False,False,False
Frauenhaus Schwabach,2177,Bayern,Kreisfreie Stadt,Schwabach,49.329349195087,11.024939052197,0.0,0.0,0.0,0.9990654205607477,0.0,0.0,Frauenhaus,True,False,False,False
Frauenhaus Schwarzenbek,2263,Schleswig-Holstein,Kreis,Herzogtum Lauenburg,53.503650426025,10.483866451312,0.0,0.0,0.0,1.0,0.0,0.0,Frauenhaus,False,False,False,False
Frauenhaus Schwedt,2079,Brandenburg,Landkreis,Uckermark,53.072867194575,14.277710475059,0.0,0.2616822429906542,0.0,0.0,0.0,0.7383177570093458,Frauenhaus,True,False,False,False
Frauenhaus Siegen,2154,Nordrhein-Westfalen,Kreis,Siegen-Wittgenstein,50.8759626,8.0164616,0.0,0.024299065420560748,0.048598130841121495,0.9242990654205607,0.002803738317757009,0.0,Frauenhaus,False,False,False,False
Frauenhaus Singen,2237,Baden-Württemberg,Landkreis,Konstanz,47.762044359329,8.853405053013,0.0,0.0,0.10654205607476636,0.8934579439252337,0.0,0.0,Frauenhaus,False,False,False,False
Frauenhaus SkF,2117,Bayern,Kreisfreie Stadt,Würzburg,49.7646014,9.9055338,0.0,0.0,0.0,1.0,0.0,0.0,Frauenhaus,True,False,False,False
Frauenhaus SkF Karlsruhe,2212,Baden-Württemberg,Stadtkreis,Karlsruhe,49.010942043401,8.392288331104,0.016822429906542057,0.2616822429906542,0.016822429906542057,0.6953271028037383,0.002803738317757009,0.0065420560747663555,Frauenhaus,False,False,False,False
Frauenhaus Soest,2144,Nordrhein-Westfalen,Kreis,Soest,51.565331935758,8.097908720838,0.0,0.02336448598130841,0.11401869158878504,0.8542056074766355,0.008411214953271028,0.0,Frauenhaus,False,False,False,False
Frauenhaus Sondershausen,2038,Thüringen,Landkreis,Kyffhäuserkreis,51.3700633,10.8491714,0.10373831775700934,0.0794392523364486,0.4747663551401869,0.17196261682242991,0.027102803738317756,0.14299065420560747,Frauenhaus,False,False,False,False
Frauenhaus Sozialdienst katholischer Frauen e.V.,2247,Hessen,Landkreis,Gießen,50.572063246443,8.667524534963,0.007476635514018692,0.052336448598130844,0.02897196261682243,0.9112149532710281,0.0,0.0,Frauenhaus,False,False,False,False
Frauenhaus Speyer,2174,Rheinland-Pfalz,Kreisfreie Stadt,Speyer,49.322620194502,8.429573035315,0.027102803738317756,0.008411214953271028,0.010280373831775701,0.9289719626168225,0.025233644859813085,0.0,Frauenhaus,False,False,False,False
Frauenhaus Stendal,2028,Sachsen-Anhalt,Landkreis,Stendal,52.605557128017,11.847668159234999,0.0,0.0,0.0,0.0,0.0,1.0,Frauenhaus,False,False,False,False
Frauenhaus Stormarn,2343,Schleswig-Holstein,Kreis,Stormarn,53.674312919727,10.231099789877,0.03457943925233645,0.058878504672897194,0.0,0.8401869158878504,0.011214953271028037,0.05046728971962617,Frauenhaus,False,False,False,False
Frauenhaus Straubing,2108,Bayern,Kreisfreie Stadt,Straubing,48.8777333,12.5801539,0.0,0.03551401869158879,0.0009345794392523365,0.7588785046728972,0.0,0.20373831775700935,Frauenhaus,True,False,False,False
Frauenhaus Telgte,2133,Nordrhein-Westfalen,Kreis,Warendorf,51.984441708803,7.788351593569,0.0,0.0,0.0616822429906542,0.9373831775700935,0.0009345794392523365,0.0,Frauenhaus,False,False,False,False
Frauenhaus Ulm,2230,Baden-Württemberg,Stadtkreis,Ulm,48.402932597842,9.999279928912,0.0,0.0,0.06822429906542056,0.7841121495327102,0.0,0.14766355140186915,Frauenhaus,False,False,False,False
Frauenhaus Unna,2233,Nordrhein-Westfalen,Kreis,Unna,51.55022541813,7.691389709733,0.0,0.0,0.008411214953271028,0.9897196261682243,0.001869158878504673,0.0,Frauenhaus,True,False,False,False
Frauenhaus Warendorf,2074,Nordrhein-Westfalen,Kreis,Warendorf,51.9501568,7.9840382,0.003738317757009346,0.007476635514018692,0.028037383177570093,0.9532710280373832,0.007476635514018692,0.0,Frauenhaus,False,False,False,False
Frauenhaus Weiden,2071,Bayern,Kreisfreie Stadt,Weiden i.d. OPf.,49.677827673914,12.154750706237,0.11682242990654206,0.20373831775700935,0.0,0.597196261682243,0.08224299065420561,0.0,Frauenhaus,True,False,True,False
Frauenhaus Weimar,2292,Thüringen,Kreisfreie Stadt,Weimar,50.982827330819,11.322555165749,0.0,0.0,0.5280373831775701,0.16355140186915887,0.0,0.308411214953271,Schutzwohnung,False,False,False,False
Frauenhaus Weißenfels,2168,Sachsen-Anhalt,Landkreis,Burgenlandkreis,51.2046563,11.9710163,0.0,0.0,0.0,0.0,0.0,1.0,Frauenhaus,False,False,False,False
Frauenhaus Westerwald,2416,Rheinland-Pfalz,Landkreis,Westerwaldkreis,50.66442060915,7.821671710156,0.0,0.058878504672897194,0.0,0.9093457943925234,0.0,0.0,Frauenhaus,False,False,False,False
Frauenhaus Wetterau,2059,Hessen,Landkreis,Wetteraukreis,50.332736759446,8.762147100409,0.052336448598130844,0.10093457943925234,0.0,0.8467289719626169,0.0,0.0,Frauenhaus,False,True,False,False
Frauenhaus Wetzlar e.V.,2208,Hessen,Landkreis,Lahn-Dill-Kreis,50.559625165351,8.499134628186,0.0009345794392523365,0.03551401869158879,0.002803738317757009,0.9588785046728971,0.001869158878504673,0.0,Frauenhaus,False,False,False,False
Frauenhaus Worms,2410,Rheinland-Pfalz,Kreisfreie Stadt,Worms,49.6238729,8.359877471689,0.0009345794392523365,0.018691588785046728,0.009345794392523364,0.8803738317757009,0.07757009345794393,0.0,Frauenhaus,False,False,False,False
Frauenhaus Zollernalbkreis,2046,Baden-Württemberg,Landkreis,Zollernalbkreis,48.269484562955,8.94737584922,0.0,0.13738317757009347,0.011214953271028037,0.7682242990654206,0.08317757009345794,0.0,Frauenhaus,False,False,False,False
Frauenhaus der Frauenhilfe München,2348,Bayern,Kreisfreie Stadt,München,48.1351253,11.5819805,0.0,0.003738317757009346,0.2130841121495327,0.6355140186915887,0.14766355140186915,0.0,Frauenhaus,True,True,False,False
Frauenhaus des Caritasverbandes für Stadt und Landkreis Gifhorn,2285,Niedersachsen,Landkreis,Gifhorn,52.484496766686,10.540274633294,0.0,0.5579439252336449,0.0,0.2672897196261682,0.17476635514018693,0.0,Frauenhaus,False,False,False,False
Frauenhaus des Rhein-Sieg-Kreises,2228,Nordrhein-Westfalen,Kreis,Rhein-Sieg-Kreis,50.749009526955,7.221746527917,0.014953271028037384,0.012149532710280374,0.022429906542056073,0.9504672897196261,0.0,0.0,Frauenhaus,False,False,False,False
Frauenhaus e.V. Solingen,2110,Nordrhein-Westfalen,Kreis,Mettmann,51.1238982,6.978047,0.025233644859813085,0.019626168224299065,0.0,0.9551401869158879,0.0,0.0,Frauenhaus,True,False,False,False
Frauenhaus für die Region Main-Rhön in Schweinfurt,2054,Bayern,Kreisfreie Stadt,Schweinfurt,50.04723375,10.224025804585,0.0,0.0,0.0,1.0,0.0,0.0,Frauenhaus,False,False,False,False
Frauenhaus im Landkreis Calw,2100,Baden-Württemberg,Landkreis,Calw,48.714306559169,8.741623063857,0.002803738317757009,0.12429906542056075,0.0009345794392523365,0.025233644859813085,0.0,0.8467289719626169,Frauenhaus,False,False,False,False
Frauenhaus im Landkreis Kassel,2035,Hessen,Landkreis,Kassel,51.2550775,9.4119007,0.0,0.010280373831775701,0.0009345794392523365,0.9887850467289719,0.0,0.0,Frauenhaus,True,False,False,False
Frauenhaus im Landkreis Schwandorf,2195,Bayern,Landkreis,Schwandorf,49.3263177,12.1038045,0.0,0.0,0.10841121495327102,0.15794392523364487,0.0,0.7336448598130841,Frauenhaus,False,False,False,False
Frauenhaus und Beratungsstelle,2139,Brandenburg,Landkreis,Oder-Spree,52.1448863,14.6294413,0.0,0.0,0.05514018691588785,0.9448598130841122,0.0,0.0,Frauenhaus,False,False,False,False
"Frauenhaus, Beratungs- und Interventionsstelle Limburg",2036,Hessen,Landkreis,Limburg-Weilburg,50.387426446735,8.064561329702,0.002803738317757009,0.052336448598130844,0.03457943925233645,0.9065420560747663,0.003738317757009346,0.0,Frauenhaus,False,False,False,False
Frauenhäuser Geschütztes Wohnen,2327,Baden-Württemberg,Landkreis,Karlsruhe,49.104470848914,8.5913541328,0.0,0.19813084112149532,0.0,0.27850467289719627,0.0,0.5233644859813084,Frauenhaus,True,False,False,False
Frauennotruf Hochfranken,2135,Bayern,Kreisfreie Stadt,Hof,50.318924920653,11.923855529507,0.0,0.0308411214953271,0.007476635514018692,0.9607476635514018,0.0,0.0,Schutzwohnung,False,False,False,False
Frauenschutz Weimarer Land,2062,Thüringen,Landkreis,Weimarer Land,51.020381404684,11.4986504232,0.0,0.0,0.0,1.0,0.0,0.0,Frauenhaus,False,False,False,False
FrauenschutzHaus Wolfenbüttel,2306,Niedersachsen,Landkreis,Wolfenbüttel,52.1625283,10.5348215,0.0,0.0,0.0,0.0,0.0,1.0,Frauenhaus,True,False,False,False
Frauenschutzangebot,2210,Sachsen,Landkreis,Erzgebirgskreis,50.4756535,12.7667543,0.0,0.5579439252336449,0.0,0.0,0.0,0.44205607476635517,Schutzwohnung,False,False,False,False
Frauenschutzeinrichtung Zwickau Stadt,2044,Sachsen,Landkreis,Zwickau,50.726853592716,12.490858252887,0.0,0.0,0.0,1.0,0.0,0.0,Schutzwohnung,False,False,False,False
Frauenschutzhaus,2132,Mecklenburg-Vorpommern,Landkreis,Nordwestmecklenburg,53.8965859,11.4695121,0.02897196261682243,0.11214953271028037,0.0,0.8514018691588785,0.0,0.0,Frauenhaus,False,False,False,False
Frauenschutzhaus,2219,Mecklenburg-Vorpommern,Landkreis,Rostock,53.793364322518,12.181076883324,0.0,0.0,0.18785046728971963,0.8121495327102803,0.0,0.0,Frauenhaus,False,False,False,False
Frauenschutzhaus,2310,Sachsen-Anhalt,Kreisfreie Stadt,Halle (Saale),51.4825041,11.9705452,0.0,0.0,0.0,0.0,0.0,1.0,Frauenhaus,False,False,False,False
Frauenschutzhaus Dresden,2087,Sachsen,Kreisfreie Stadt,Dresden,51.0504088,13.7372621,0.0,0.0,0.0,0.0,0.0,1.0,Frauenhaus,False,False,False,False
Frauenschutzhaus Freiberg,2083,Sachsen,Landkreis,Mittelsachsen,50.895481287937,13.333490439612,0.0,0.0,0.6364485981308411,0.36355140186915885,0.0,0.0,Frauenhaus,False,False,False,False
Frauenschutzhaus Helmstedt,2290,Niedersachsen,Landkreis,Helmstedt,52.232426476168,11.004057698082,0.0,0.002803738317757009,0.7682242990654206,0.22897196261682243,0.0,0.0,Frauenhaus,True,False,False,False
Frauenschutzhaus Magdeburg,2031,Sachsen-Anhalt,Kreisfreie Stadt,Magdeburg,52.109112469784,11.635762688513,0.0,0.0,0.0,0.0,0.0,1.0,Frauenhaus,True,False,False,False
Frauenschutzhaus Wittenberg,2319,Sachsen-Anhalt,Landkreis,Wittenberg,51.869377514536,12.646353310986001,0.018691588785046728,0.3747663551401869,0.0,0.1411214953271028,0.037383177570093455,0.4280373831775701,Frauenhaus,False,False,False,False
Frauenschutzwohnung,2242,Thüringen,Landkreis,Unstrut-Hainich-Kreis,51.11064946722,10.643128194246,0.0,0.0,0.0,0.0,0.0,1.0,Schutzwohnung,False,False,False,False
Frauenschutzwohnung Altenburg,2276,Thüringen,Landkreis,Altenburger Land,50.9888921,12.429075,0.0,0.0,0.5757009345794393,0.42429906542056073,0.0,0.0,Schutzwohnung,False,False,False,False
Frauenschutzwohnungen Landkreis Nordsachsen,2042,Sachsen,Landkreis,Nordsachsen,51.5628862,12.9909587,0.5037383177570094,0.4654205607476635,0.0,0.0,0.0,0.0308411214953271,Schutzwohnung,False,False,False,False
Frauenschutzzentrum,2325,Nordrhein-Westfalen,Kreis,Minden-Lübbecke,52.292865585765,8.884828610875,0.026168224299065422,0.1308411214953271,0.0,0.8317757009345794,0.011214953271028037,0.0,Frauenhaus,False,False,False,False
Frauenzentrum Paula Panke e.V. - Zufluchtswohnung,2068,Berlin,Kreisfreie Stadt,Berlin,52.56961735,13.403536522993,0.0,0.0,0.0,0.0,0.0,1.0,Schutzwohnung,False,False,False,False
Frauenzimmer e.V.,2082,Berlin,Kreisfreie Stadt,Berlin,52.4836896,13.352822090579,0.0,0.0,0.0,0.0,0.0,1.0,Schutzwohnung,True,False,False,False
Frauenzuflucht Kaiserslautern,2236,Rheinland-Pfalz,Kreisfreie Stadt,Kaiserslautern,49.44167141989,7.76806020992,0.0,0.0,0.0,1.0,0.0,0.0,Frauenhaus,False,False,False,False
Haus für Frauen in Not,2150,Hessen,Landkreis,Rheingau-Taunus-Kreis,50.142945932409,8.06664247563,0.026168224299065422,0.08224299065420561,0.0,0.8710280373831776,0.020560747663551402,0.0,Frauenhaus,False,False,False,False
Haus für Frauen in Not Wiesbaden,2158,Hessen,Kreisfreie Stadt,Wiesbaden,50.077813921273,8.236045029311,0.0065420560747663555,0.003738317757009346,0.0,0.9757009345794393,0.014018691588785047,0.0,Frauenhaus,False,False,False,False
Hestia Frauenhaus,2102,Berlin,Kreisfreie Stadt,Berlin,52.5034002,13.3386373,0.0,0.0,0.0,0.0,0.0,1.0,Frauenhaus,False,False,False,False
Hestia Zufluchtswohnungen Prenzlauer Berg,2096,Berlin,Kreisfreie Stadt,Berlin,52.5355509,13.425688849992,0.0,0.0,0.0,0.8925233644859814,0.10747663551401869,0.0,Schutzwohnung,False,False,False,False
Hestia-Zufluchtswohnungen Wedding,2051,Berlin,Kreisfreie Stadt,Berlin,52.54108405,13.389616050162,0.017757009345794394,0.03551401869158879,0.0,0.891588785046729,0.05514018691588785,0.0,Schutzwohnung,False,False,False,False
Hilfe für Frauen in Not-Frauenhaus Bonn e.V.,2129,Nordrhein-Westfalen,Kreisfreie Stadt,Bonn,50.737581638095,7.101763519581,0.0009345794392523365,0.019626168224299065,0.017757009345794394,0.9616822429906542,0.0,0.0,Frauenhaus,False,False,False,False
Internationales Frauenhaus,2328,Nordrhein-Westfalen,Kreisfreie Stadt,Düsseldorf,51.236733864852,6.792454779053,0.0,0.0,0.016822429906542057,0.983177570093458,0.0,0.0,Frauenhaus,False,False,False,False
Jenaer Frauenhaus e.V.,2272,Thüringen,Kreisfreie Stadt,Jena,50.9463598,11.5977589,0.0,0.0,0.05514018691588785,0.9448598130841122,0.0,0.0,Frauenhaus,False,False,False,False
KARO e.V.,2266,Sachsen,Landkreis,Vogtlandkreis,50.4950632,12.1346523,0.0,0.4439252336448598,0.17196261682242991,0.3841121495327103,0.0,0.0,Frauenhaus,False,False,False,False
Kinder- und Frauenschutzwohnung der Stadt Wernigerode,2287,Sachsen-Anhalt,Landkreis,Harz,51.839931701364,10.783901991418,0.0,0.0,0.16448598130841122,0.24299065420560748,0.0,0.5925233644859813,Schutzwohnung,True,False,False,False
S.H.E. - Schutzhaus für geflüchtete Frauen,2029,Sachsen,Kreisfreie Stadt,Leipzig,51.324894093361,12.374329706113,0.0,0.1261682242990654,0.0,0.026168224299065422,0.8476635514018691,0.0,Schutzwohnung,False,False,False,False
Schutzhaus für Frauen und Kinder,2107,Nordrhein-Westfalen,Kreis,Euskirchen,50.616462856427,6.84026134715,0.058878504672897194,0.11214953271028037,0.013084112149532711,0.8018691588785046,0.014018691588785047,0.0,Frauenhaus,False,False,False,False
Schutzwohnung im Rhein-Neckar-Kreis,2271,Baden-Württemberg,Landkreis,Rhein-Neckar-Kreis,49.54620451729,8.649864854517,0.048598130841121495,0.0,0.0,0.8149532710280374,0.044859813084112146,0.07289719626168224,Schutzwohnung,False,False,False,False
Schutzwohnungen Nordfriesland,2438,Schleswig-Holstein,Kreis,Nordfriesland,54.6156443,8.9676337,0.0,0.0,0.048598130841121495,0.44018691588785047,0.008411214953271028,0.3130841121495327,Schutzwohnung,False,False,False,False
Sofortaufnahme für gewaltbetroffene Frauen und ihre Kinder - Frauenhaus24 Hannover,2011,Niedersachsen,Landkreis,Region Hannover,52.377057435404,9.736999308768,0.0,0.0,1.0,0.0,0.0,0.0,,True,False,False,False
Städtisches Frauenhaus Stuttgart,2197,Baden-Württemberg,Stadtkreis,Stuttgart,48.76986235,9.211651935853,0.04672897196261682,0.27102803738317754,0.005607476635514018,0.5271028037383177,0.0,0.14953271028037382,Frauenhaus,False,False,False,False
Wolfsburger Frauenhaus,2383,Niedersachsen,Kreisfreie Stadt,Wolfsburg,52.421175871211,10.79371507002,0.003738317757009346,0.07663551401869159,0.03925233644859813,0.7542056074766356,0.1261682242990654,0.0,Frauenhaus,False,False,False,False
Zentrale Sofortaufnahme der Frauen*- und Kinderschutzhäuser Leipzig,2056,Sachsen,Kreisfreie Stadt,Leipzig,51.3844702,12.3160085,0.0,0.0,0.0,0.0,0.0,1.0,,False,False,False,False
Zufluchtswohung Matilde,2060,Berlin,Kreisfreie Stadt,Berlin,52.53713195,13.610523076316,0.0,0.0,0.0,1.0,0.0,0.0,Schutzwohnung,False,False,False,False
offensiv´91 e.V. Frauenzufluchtswohnung,2037,Berlin,Kreisfreie Stadt,Berlin,52.45499615,13.514810051508,0.0,0.08785046728971962,0.0,0.44766355140186914,0.11401869158878504,0.35046728971962615,Schutzwohnung,False,False,False,False
Ökumenisches Frauenhaus Pforzheim,2204,Baden-Württemberg,Stadtkreis,Pforzheim,48.8667572,8.7531246,0.0,0.037383177570093455,0.0616822429906542,0.14299065420560747,0.0,0.7579439252336448,Frauenhaus,False,False,False,False
