shelter_name,shelter_id,bundesland,bez,gen,latitude,longitude,Aufnahme möglich für Frauen mit bis zu einem Kind,Aufnahme möglich für Frauen mit mehreren Kindern,Aufnahme möglich ohne detaillierte Angabe,Keine Aufnahme möglich,Platz für Frauen ohne Kinder,keine Angabe
1. &amp 3. Hamburger Frauenhaus,2382,Hamburg,Kreisfreie Stadt,Hamburg,53.5528284,9.9966396,0.0,0.0,0.01837270341207349,0.0,0.0,0.9816272965879265
1. Autonomes Frauenhaus,2027,Sachsen,Kreisfreie Stadt,Leipzig,51.325187635158,12.373901299377,0.13385826771653545,0.0,0.0,0.2440944881889764,0.6220472440944882,0.0
1. Frauenhaus Köln,2140,Nordrhein-Westfalen,Kreisfreie Stadt,Köln,50.933466575848,6.998637825656,0.015748031496062992,0.005249343832020997,0.0026246719160104987,0.9763779527559056,0.0,0.0
2. Autonomes Frauenhaus Berlin,2274,Berlin,Kreisfreie Stadt,Berlin,52.516226925016,13.377744825842,0.0,0.0,0.0,0.0,0.0,1.0
2. Autonomes Frauenhaus Köln,2253,Nordrhein-Westfalen,Kreisfreie Stadt,Köln,50.921396360676,6.995416051662,0.005249343832020997,0.026246719160104987,0.0,0.968503937007874,0.0,0.0
2. Hamburger Frauenhaus e.V.,2367,Hamburg,Kreisfreie Stadt,Hamburg,53.541814575369,9.998572209518,0.0,0.0,0.0,0.0,0.0,1.0
24/7 Notaufnahme der Hamburger Frauenhäuser,2039,Hamburg,Kreisfreie Stadt,Hamburg,53.554448,9.991344,0.0,0.0,0.0,0.0,0.0,1.0
4. Frauen*- und Kinderschutzhaus Leipzig,2317,Sachsen,Kreisfreie Stadt,Leipzig,51.3406321,12.3747329,0.05774278215223097,0.1837270341207349,0.0,0.6036745406824147,0.15485564304461943,0.0
6. Autonomes Frauenhaus Hamburg,2381,Hamburg,Kreisfreie Stadt,Hamburg,53.5528284,9.9966396,0.0,0.0,0.0,0.0,0.0,1.0
AWO Frauenhaus,2297,Niedersachsen,Landkreis,Region Hannover,52.3744779,9.7385532,0.0,0.0,0.0,0.0,0.0,1.0
AWO Frauenhaus &quotLotte Lemke&quot,2103,Hessen,Landkreis,Hochtaunuskreis,50.2268308,8.6181618,0.03674540682414698,0.12860892388451445,0.0,0.8346456692913385,0.0,0.0
AWO Frauenhaus Bielefeld,2118,Nordrhein-Westfalen,Kreisfreie Stadt,Bielefeld,52.035301540103,8.526657636721,0.0,0.0026246719160104987,0.11023622047244094,0.8346456692913385,0.05249343832020997,0.0
AWO Frauenhaus Iserlohn,2232,Nordrhein-Westfalen,Kreis,Märkischer Kreis,51.383210093974,7.684256826022,0.031496062992125984,0.28083989501312334,0.0,0.6876640419947506,0.0,0.0
AWO Frauenhaus Landshut,2187,Bayern,Kreisfreie Stadt,Landshut,48.53761662542,12.153462601108,0.0,0.0,0.0,1.0,0.0,0.0
AWO Frauenhaus Ludwigslust,2148,Mecklenburg-Vorpommern,Landkreis,Ludwigslust-Parchim,53.3244914,11.4969238,0.047244094488188976,0.05511811023622047,0.0,0.8057742782152231,0.028871391076115485,0.06299212598425197
AWO Frauenhaus Neu-Ulm,2094,Bayern,Landkreis,Neu-Ulm,48.376176,10.008997602757,0.0,0.005249343832020997,0.0,0.28083989501312334,0.0,0.7139107611548556
AWO Frauenhaus Nurdan-Eker Wiesbaden,2312,Hessen,Kreisfreie Stadt,Wiesbaden,50.092145133904,8.233820739889,0.0,0.0,0.0,1.0,0.0,0.0
AWO Frauenhaus Schaumburg,2353,Niedersachsen,Landkreis,Schaumburg,52.31830254248,9.204289693607,0.0,0.0,0.31955922865013775,0.14600550964187328,0.0,0.5344352617079889
AWO Frauenhaus Schwalm-Eder,2104,Hessen,Landkreis,Schwalm-Eder-Kreis,51.030353699843,9.41785004983,0.0,0.0,0.10498687664041995,0.89501312335958,0.0,0.0
AWO Frauenhaus Würzburg,2138,Bayern,Kreisfreie Stadt,Würzburg,49.802231315947,9.936143759985,0.0,0.013123359580052493,0.15223097112860892,0.3910761154855643,0.010498687664041995,0.4330708661417323
AWO Frauenschutzhaus Stralsund,2172,Mecklenburg-Vorpommern,Landkreis,Vorpommern-Rügen,54.3161903,13.0950601,0.0,0.0,0.4645669291338583,0.4566929133858268,0.04461942257217848,0.03412073490813648
AWO-Frauenhaus,2311,Nordrhein-Westfalen,Kreis,Kleve,51.789621872871,6.145853870316,0.015748031496062992,0.047244094488188976,0.0,0.937007874015748,0.0,0.0
AWO-Frauenhaus im Landkreis Harburg,2386,Niedersachsen,Landkreis,Harburg,53.360527316544,9.825140798087,0.0,0.0,0.0,0.0,0.0,1.0
AWO-Frauenhaus-Bottrop,2321,Nordrhein-Westfalen,Kreisfreie Stadt,Bottrop,51.522238111129,6.926211462971,0.013123359580052493,0.07349081364829396,0.0,0.8923884514435696,0.02099737532808399,0.0
Autonome Frauenschutzeinrichtung Brandenburg an der Havel,2347,Brandenburg,Kreisfreie Stadt,Brandenburg an der Havel,52.4155967,12.552183065949,0.0,0.0,0.0,0.0,0.0,1.0
Autonomes Bremer Frauenhaus,2198,Bremen,Kreisfreie Stadt,Bremen,53.076516637178,8.80872139115,0.0,0.0,0.0,0.0,0.0,1.0
Autonomes Frauenhaus,2081,Hessen,Landkreis,Waldeck-Frankenberg,51.11062982947,9.116401666944,0.0026246719160104987,0.04199475065616798,0.0,0.9553805774278216,0.0,0.0
Autonomes Frauenhaus,2170,Hessen,Landkreis,Main-Kinzig-Kreis,50.25418357165,9.295718601627,0.010498687664041995,0.02099737532808399,0.005249343832020997,0.9606299212598425,0.0026246719160104987,0.0
Autonomes Frauenhaus Bielefeld,2220,Nordrhein-Westfalen,Kreisfreie Stadt,Bielefeld,52.0191005,8.531007,0.0,0.0,0.005249343832020997,0.994750656167979,0.0,0.0
Autonomes Frauenhaus Celle,2041,Niedersachsen,Landkreis,Celle,52.620867,10.0626059,0.03937007874015748,0.08923884514435695,0.0,0.8530183727034121,0.010498687664041995,0.007874015748031496
Autonomes Frauenhaus Dortmund,2052,Nordrhein-Westfalen,Kreisfreie Stadt,Dortmund,51.5142273,7.4652789,0.0,0.05249343832020997,0.12598425196850394,0.821522309711286,0.0,0.0
Autonomes Frauenhaus Duisburg,2199,Nordrhein-Westfalen,Kreisfreie Stadt,Duisburg,51.434999,6.759562,0.005249343832020997,0.0,0.09711286089238845,0.8976377952755905,0.0,0.0
Autonomes Frauenhaus Elmshorn,2049,Schleswig-Holstein,Kreis,Pinneberg,53.7542251,9.6592636,0.0026246719160104987,0.06036745406824147,0.0,0.9291338582677166,0.007874015748031496,0.0
Autonomes Frauenhaus Erlangen,2265,Bayern,Kreisfreie Stadt,Erlangen,49.59608204841,11.001999091098,0.0,0.0,0.0,0.0,0.0,1.0
Autonomes Frauenhaus Frankfurt,2091,Hessen,Kreisfreie Stadt,Frankfurt am Main,50.1109221,8.6821267,0.14435695538057744,0.06824146981627296,0.05511811023622047,0.7296587926509186,0.0026246719160104987,0.0
Autonomes Frauenhaus Gießen,2181,Hessen,Landkreis,Gießen,50.581233679102,8.666742445447,0.0,0.007874015748031496,0.08661417322834646,0.889763779527559,0.015748031496062992,0.0
Autonomes Frauenhaus Heilbronn,2259,Baden-Württemberg,Stadtkreis,Heilbronn,49.131106886991,9.228034832273,0.0,0.031496062992125984,0.0,0.9002624671916011,0.0,0.06824146981627296
Autonomes Frauenhaus Itzehoe,2193,Schleswig-Holstein,Kreis,Steinburg,53.9242344,9.5100452,0.02099737532808399,0.0,0.007874015748031496,0.9711286089238845,0.0,0.0
Autonomes Frauenhaus Kempten (Allgäu),2024,Bayern,Kreisfreie Stadt,Kempten (Allgäu),47.762382099999996,10.3245689,0.0,0.0,0.0,1.0,0.0,0.0
Autonomes Frauenhaus Kreis Plön,2034,Schleswig-Holstein,Kreis,Plön,54.232749761427,10.279783840293,0.023622047244094488,0.08923884514435695,0.010498687664041995,0.8740157480314961,0.0,0.0026246719160104987
Autonomes Frauenhaus Leverkusen,2151,Nordrhein-Westfalen,Kreisfreie Stadt,Leverkusen,51.036439483933,6.993204651605,0.007874015748031496,0.005249343832020997,0.005249343832020997,0.9816272965879265,0.0,0.0
Autonomes Frauenhaus Lörrach,2075,Baden-Württemberg,Landkreis,Lörrach,47.602006174985,7.6622878822819995,0.02099737532808399,0.09448818897637795,0.06824146981627296,0.3464566929133858,0.0,0.46981627296587924
Autonomes Frauenhaus Lübeck,2249,Schleswig-Holstein,Kreisfreie Stadt,Lübeck,53.867549231603,10.687671111421,0.0,0.0,0.0,1.0,0.0,0.0
Autonomes Frauenhaus Lüneburg,2066,Niedersachsen,Landkreis,Lüneburg,53.2497728,10.4197721,0.0,0.0,0.0,1.0,0.0,0.0
Autonomes Frauenhaus Marburg,2025,Hessen,Landkreis,Marburg-Biedenkopf,50.8117327,8.7757742,0.0026246719160104987,0.03674540682414698,0.09711286089238845,0.863517060367454,0.0,0.0
Autonomes Frauenhaus Memmingen,2069,Bayern,Kreisfreie Stadt,Memmingen,47.9848507,10.1870278,0.015748031496062992,0.007874015748031496,0.013123359580052493,0.03412073490813648,0.03412073490813648,0.89501312335958
Autonomes Frauenhaus Münster,2141,Nordrhein-Westfalen,Kreisfreie Stadt,Münster,51.956729697633,7.632398512595,0.0026246719160104987,0.02099737532808399,0.0,0.9763779527559056,0.0,0.0
Autonomes Frauenhaus Neumünster,2063,Schleswig-Holstein,Kreisfreie Stadt,Neumünster,54.074247318196,9.984462815518,0.015748031496062992,0.03674540682414698,0.0,0.937007874015748,0.010498687664041995,0.0
Autonomes Frauenhaus Oldenburg e.V.,2136,Niedersachsen,Kreisfreie Stadt,Oldenburg (Oldb),53.139855192327,8.227910833021,0.0,0.0,0.0,0.0,0.08923884514435695,0.910761154855643
Autonomes Frauenhaus Osnabrück,2089,Niedersachsen,Kreisfreie Stadt,Osnabrück,52.274435951938,8.04727121527,0.03412073490813648,0.010498687664041995,0.0,0.9291338582677166,0.026246719160104987,0.0
Autonomes Frauenhaus Regensburg,2225,Bayern,Kreisfreie Stadt,Regensburg,48.98322105,12.151901371455,0.0,0.028871391076115485,0.2572178477690289,0.49343832020997375,0.0,0.2204724409448819
Autonomes Frauenhaus Rheydt,2048,Nordrhein-Westfalen,Kreisfreie Stadt,Mönchengladbach,51.164802443583,6.446487203488,0.0,0.0026246719160104987,0.0026246719160104987,0.994750656167979,0.0,0.0
Autonomes Frauenhaus Rostock,2163,Mecklenburg-Vorpommern,Landkreis,Rostock,54.052138471041,12.10428681682,0.0,0.031496062992125984,0.0,0.9133858267716536,0.05511811023622047,0.0
Autonomes Frauenhaus Stuttgart,2078,Baden-Württemberg,Stadtkreis,Stuttgart,48.763984707357,9.174786993125,0.03937007874015748,0.007874015748031496,0.02099737532808399,0.931758530183727,0.0,0.0
Autonomes Frauenhaus Trier,2137,Rheinland-Pfalz,Kreisfreie Stadt,Trier,49.749992,6.6371433,0.10559006211180125,0.027950310559006212,0.006211180124223602,0.860248447204969,0.0,0.0
Autonomes Frauenhaus Tübingen,2012,Baden-Württemberg,Landkreis,Tübingen,48.52057725995,9.025027129822,0.0,0.08661417322834646,0.0,0.905511811023622,0.007874015748031496,0.0
Autonomes Frauenhaus Wedel,2188,Schleswig-Holstein,Kreis,Pinneberg,53.583195431882,9.709891071281,0.0,0.0,0.0,0.9816272965879265,0.01837270341207349,0.0
BIG Hotline - Beratung und Vermittlung,2281,Berlin,Kreisfreie Stadt,Berlin,52.5170365,13.3888599,0.0,0.0,0.0,0.0,0.0,1.0
BORA Frauenhaus,2345,Berlin,Kreisfreie Stadt,Berlin,52.5050416,13.362846383345,0.0,0.0,0.0,0.0,0.0,1.0
Beratung für Frauen/Frauenschutzhaus Biberach,2360,Baden-Württemberg,Landkreis,Biberach,48.093565642996,9.786809486456,0.0,0.0,0.0,0.0,0.0,1.0
Beratungs- und Krisenzentrum für Frauen,2122,Brandenburg,Landkreis,Havelland,52.59248315,12.328108634457,0.0,0.0,0.0,0.0,0.0,1.0
Beratungsstelle für Betroffene von häuslicher Gewalt,2190,Mecklenburg-Vorpommern,Landkreis,Vorpommern-Rügen,54.4151606,13.425834,0.013123359580052493,0.0,0.0,0.9868766404199475,0.0,0.0
Caritas Frauenhaus Ingolstadt,2260,Bayern,Kreisfreie Stadt,Ingolstadt,48.7630165,11.4250395,0.0,0.0,0.010498687664041995,0.16010498687664043,0.0,0.8293963254593176
Caritas Frauenhaus Landshut,2218,Bayern,Kreisfreie Stadt,Landshut,48.538071270726,12.162603569431,0.0,0.0,0.0,1.0,0.0,0.0
Caritas-Frauenhaus,2098,Berlin,Kreisfreie Stadt,Berlin,52.559654245315,13.370605613927,0.0,0.0,0.0,0.0,0.0,1.0
DRK KV Eichsfeld e.V. Frauenschutzwohnung Leinefelde,2282,Thüringen,Landkreis,Eichsfeld,51.425144533056,10.35842107336,0.0,0.0,0.0,0.0,0.0,1.0
DRk Frauenschutzhaus Burg,2307,Sachsen-Anhalt,Landkreis,Jerichower Land,52.269276139014,11.852119516482,0.0,0.0,0.13648293963254593,0.863517060367454,0.0,0.0
Frauen - und Kinderschutzhaus,2339,Hessen,Landkreis,Darmstadt-Dieburg,49.893363,8.836827,0.0,0.04199475065616798,0.007874015748031496,0.9501312335958005,0.0,0.0
Frauen - und Kinderschutzhaus Filder,2080,Baden-Württemberg,Landkreis,Esslingen,48.663256354141,9.219398527189,0.005249343832020997,0.02099737532808399,0.0,0.973753280839895,0.0,0.0
Frauen helfen Frauen Schwarzwald Baar e.V.,2262,Baden-Württemberg,Landkreis,Schwarzwald-Baar-Kreis,48.05923605,8.462281102255,0.0,0.0,0.0,0.0,0.0,1.0
Frauen helfen Frauen e.V.,2153,Nordrhein-Westfalen,Kreisfreie Stadt,Wuppertal,51.283777950273,7.143748029476,0.005249343832020997,0.010498687664041995,0.015748031496062992,0.9606299212598425,0.007874015748031496,0.0
Frauen helfen Frauen e.V.,2275,Bayern,Landkreis,Bad Tölz-Wolfratshausen,47.915446386913,11.423220582099,0.04199475065616798,0.10498687664041995,0.03412073490813648,0.8057742782152231,0.013123359580052493,0.0
Frauen helfen Frauen e.V. Dinslaken,2145,Nordrhein-Westfalen,Kreis,Wesel,51.567639806596,6.747491084656,0.03412073490813648,0.015748031496062992,0.11548556430446194,0.8293963254593176,0.005249343832020997,0.0
Frauen helfen Frauen e.V. Heidelberg,2152,Baden-Württemberg,Stadtkreis,Heidelberg,49.38167105,8.677039550252,0.007874015748031496,0.13648293963254593,0.0,0.8372703412073491,0.01837270341207349,0.0
Frauen in Not-Frauenhaus,2061,Mecklenburg-Vorpommern,Kreisfreie Stadt,Schwerin,53.627833083723,11.405380088953,0.0,0.0,0.023622047244094488,0.7427821522309711,0.0,0.2335958005249344
"Frauen und Kinderschutzhaus Baden-Baden, Landkreis Rastatt",2432,Baden-Württemberg,Stadtkreis,Baden-Baden,48.766436,8.244599718105,0.0,0.10666666666666667,0.03666666666666667,0.76,0.0,0.09666666666666666
Frauen- und Kinderhaus Offenbach,2077,Hessen,Kreisfreie Stadt,Offenbach am Main,50.104010086859,8.76674981179,0.0,0.03937007874015748,0.0,0.9606299212598425,0.0,0.0
Frauen- und Kinderhaus Salzwedel,2251,Sachsen-Anhalt,Landkreis,Altmarkkreis Salzwedel,52.851333063238,11.154713708822,0.0,0.09711286089238845,0.1968503937007874,0.35170603674540685,0.0,0.3543307086614173
Frauen- und Kinderhaus e.V. Uelzen,2084,Niedersachsen,Landkreis,Uelzen,52.964904113123,10.562643359678,0.0,0.0,0.0,0.0,0.0,1.0
Frauen- und Kinderhilfe Göppingen,2097,Baden-Württemberg,Landkreis,Göppingen,48.705872999684,9.649685019812999,0.0,0.04199475065616798,0.01837270341207349,0.09448818897637795,0.0,0.8451443569553806
Frauen- und Kinderschutzeinrichtung,2159,Baden-Württemberg,Landkreis,Ostalbkreis,48.8009955981,9.788703360852,0.0,0.0,0.04199475065616798,0.6824146981627297,0.0,0.2755905511811024
Frauen- und Kinderschutzhaus,2180,Bayern,Kreisfreie Stadt,Regensburg,48.98322105,12.151901371455,0.0,0.0,0.0,1.0,0.0,0.0
Frauen- und Kinderschutzhaus,2268,Baden-Württemberg,Landkreis,Ravensburg,47.764202227177,9.604661644156,0.010498687664041995,0.031496062992125984,0.0,0.5301837270341208,0.0,0.42782152230971127
Frauen- und Kinderschutzhaus,2365,Nordrhein-Westfalen,Kreis,Coesfeld,51.825388946298,7.269914071563,0.007874015748031496,0.015748031496062992,0.32545931758530183,0.6509186351706037,0.0,0.0
Frauen- und Kinderschutzhaus,2423,Nordrhein-Westfalen,Kreis,Höxter,51.502765616284,9.117780029782,0.008928571428571428,0.020833333333333332,0.13988095238095238,0.8303571428571429,0.0,0.0
Frauen- und Kinderschutzhaus Aachen,2270,Nordrhein-Westfalen,Kreis,Städteregion Aachen,50.788047150729,6.097588101025,0.0,0.06299212598425197,0.15748031496062992,0.6614173228346457,0.11811023622047244,0.0
Frauen- und Kinderschutzhaus Ammerland Wesermarsch,2309,Niedersachsen,Landkreis,Ammerland,53.186117454157,8.002655371563,0.0,0.0,0.0,0.0,0.0,1.0
Frauen- und Kinderschutzhaus Baden-Baden u. Landkreis Rastatt,2186,Baden-Württemberg,Stadtkreis,Baden-Baden,48.776510561174,8.2181331745,0.0,0.0,0.4838709677419355,0.3709677419354839,0.0,0.14516129032258066
Frauen- und Kinderschutzhaus Ballenstedt,2280,Sachsen-Anhalt,Landkreis,Harz,51.722527,11.2290268,0.0,0.1889763779527559,0.0,0.36220472440944884,0.44881889763779526,0.0
Frauen- und Kinderschutzhaus Bay. Untermain,2120,Bayern,Kreisfreie Stadt,Aschaffenburg,49.977036120801,9.145832480125,0.0,0.010498687664041995,0.0,0.905511811023622,0.0,0.08398950131233596
Frauen- und Kinderschutzhaus Bernburg (Saale),2227,Sachsen-Anhalt,Landkreis,Salzlandkreis,51.783018835759,11.754099790778,0.0,0.0,0.0,0.0,0.0,1.0
Frauen- und Kinderschutzhaus Dorsten,2115,Nordrhein-Westfalen,Kreis,Recklinghausen,51.654119376554,6.963879626385,0.11023622047244094,0.09711286089238845,0.0,0.7926509186351706,0.0,0.0
Frauen- und Kinderschutzhaus Freiburg,2092,Baden-Württemberg,Stadtkreis,Freiburg im Breisgau,48.0327354,7.857524774655,0.0,0.0,0.0,1.0,0.0,0.0
Frauen- und Kinderschutzhaus Hannover,2085,Niedersachsen,Landkreis,Region Hannover,52.365613497692,9.755097172235,0.0,0.0,0.0,0.0,0.0,1.0
Frauen- und Kinderschutzhaus Heckertstift,2008,Baden-Württemberg,Stadtkreis,Mannheim,49.492173028558,8.452588097834,0.0851063829787234,0.3009118541033435,0.0,0.6139817629179332,0.0,0.0
Frauen- und Kinderschutzhaus Heidenheim,2239,Baden-Württemberg,Landkreis,Heidenheim,48.682679502339,10.139461490017,0.0,0.0,0.0,0.0,0.0,1.0
Frauen- und Kinderschutzhaus Heidenheim,2481,Baden-Württemberg,Landkreis,Heidenheim,48.68534546242,10.140460950757,0.0,0.0,0.34285714285714286,0.5771428571428572,0.0,0.08
Frauen- und Kinderschutzhaus Heilbronn,2126,Baden-Württemberg,Stadtkreis,Heilbronn,49.140048540701,9.219636925251,0.0,0.01837270341207349,0.023622047244094488,0.958005249343832,0.0,0.0
Frauen- und Kinderschutzhaus Konstanz,2408,Baden-Württemberg,Landkreis,Konstanz,47.681740847498,9.158822455441,0.01092896174863388,0.09289617486338798,0.24316939890710382,0.3224043715846995,0.01912568306010929,0.3114754098360656
Frauen- und Kinderschutzhaus Krefeld,2229,Nordrhein-Westfalen,Kreisfreie Stadt,Krefeld,51.331785882029,6.558523443055,0.01837270341207349,0.09711286089238845,0.026246719160104987,0.8582677165354331,0.0,0.0
Frauen- und Kinderschutzhaus Kreis Viersen,2156,Nordrhein-Westfalen,Kreis,Viersen,51.253916413955,6.389885517278,0.0,0.0026246719160104987,0.10761154855643044,0.889763779527559,0.0,0.0
Frauen- und Kinderschutzhaus Landkreis Leipzig,2003,Sachsen,Landkreis,Leipzig,51.124032663272,12.506939561096,0.026246719160104987,0.24934383202099739,0.0,0.7244094488188977,0.0,0.0
Frauen- und Kinderschutzhaus Leipzig,2376,Sachsen,Kreisfreie Stadt,Leipzig,51.3406321,12.3747329,0.0,0.0,0.0,0.0,0.0,1.0
Frauen- und Kinderschutzhaus Merseburg,2030,Sachsen-Anhalt,Landkreis,Saalekreis,51.3568506,11.9904345,0.0,0.0,0.0,1.0,0.0,0.0
Frauen- und Kinderschutzhaus Moers,2330,Nordrhein-Westfalen,Kreis,Wesel,51.446276386047,6.636759749098,0.007874015748031496,0.0,0.04199475065616798,0.9501312335958005,0.0,0.0
Frauen- und Kinderschutzhaus Neckar-Odenwald-Kreis,2234,Baden-Württemberg,Landkreis,Neckar-Odenwald-Kreis,49.3489153,9.1293829,0.07349081364829396,0.0,0.023622047244094488,0.11548556430446194,0.01837270341207349,0.7690288713910761
Frauen- und Kinderschutzhaus Neubrandenburg,2216,Mecklenburg-Vorpommern,Landkreis,Mecklenburgische Seenplatte,53.557445799999996,13.2602781,0.0,0.0,0.2887139107611549,0.24146981627296588,0.0,0.46981627296587924
Frauen- und Kinderschutzhaus Pirna,2072,Sachsen,Landkreis,Sächsische Schweiz-Osterzgebirge,50.9624776,13.9284303,0.0,0.0,0.0,0.0,0.0,1.0
Frauen- und Kinderschutzhaus Radebeul,2045,Sachsen,Landkreis,Meißen,51.1031702,13.6215949,0.0,0.0,0.7979002624671916,0.0,0.0,0.2020997375328084
Frauen- und Kinderschutzhaus Radolfzell,2258,Baden-Württemberg,Landkreis,Konstanz,47.7409243,8.955847834383,0.0,0.007874015748031496,0.028871391076115485,0.6430446194225722,0.0,0.32020997375328086
Frauen- und Kinderschutzhaus Rems-Murr-Kreis,2206,Baden-Württemberg,Landkreis,Rems-Murr-Kreis,48.830787760572,9.325598847299,0.0,0.0,0.02099737532808399,0.49868766404199477,0.0,0.48031496062992124
Frauen- und Kinderschutzhaus Sangerhausen,2058,Sachsen-Anhalt,Landkreis,Mansfeld-Südharz,51.4798304,11.2943896,0.0,0.007874015748031496,0.5354330708661418,0.2545931758530184,0.0,0.2020997375328084
Frauen- und Kinderschutzhaus Sigmaringen,2462,Baden-Württemberg,Landkreis,Sigmaringen,48.086971599501,9.214495963747,0.0967741935483871,0.1152073732718894,0.055299539170506916,0.2304147465437788,0.0,0.5023041474654378
Frauen- und Kinderschutzhaus Staßfurt,2175,Sachsen-Anhalt,Landkreis,Salzlandkreis,51.846982652569,11.592657358624,0.0,0.0,0.0,0.07349081364829396,0.0,0.926509186351706
Frauen- und Kinderschutzhaus Troisdorf,2130,Nordrhein-Westfalen,Kreis,Rhein-Sieg-Kreis,50.813948,7.1508684,0.023622047244094488,0.03674540682414698,0.007874015748031496,0.931758530183727,0.0,0.0
Frauen- und Kinderschutzhaus Waldshut,2101,Baden-Württemberg,Landkreis,Waldshut,47.635706238259,8.272258305191,0.0,0.0,0.0,0.0,0.0,1.0
Frauen- und Kinderschutzhaus des Landkreises Oldenburg,2429,Niedersachsen,Landkreis,Oldenburg,52.903874494874,8.445246410384,0.0,0.0,0.0,0.0,0.0,1.0
Frauen- und Kinderschutzhaus für den Kreis Mettmann,2111,Nordrhein-Westfalen,Kreis,Mettmann,51.255178427612,6.968892885788,0.013123359580052493,0.007874015748031496,0.06561679790026247,0.9133858267716536,0.0,0.0
Frauen- und Kinderschutzhaus im Hohenlohekreis,2222,Baden-Württemberg,Landkreis,Hohenlohekreis,49.181288581991,9.637402053841999,0.04199475065616798,0.2020997375328084,0.0,0.7559055118110236,0.0,0.0
Frauen- und Kinderschutzhäuser Münster,2226,Nordrhein-Westfalen,Kreisfreie Stadt,Münster,51.964715367909,7.65173880509,0.10236220472440945,0.18635170603674542,0.026246719160104987,0.6850393700787402,0.0,0.0
Frauen- und Kinderschutzwohnung Vogtlandkreis,2351,Sachsen,Landkreis,Vogtlandkreis,50.50646945,12.404751585779,0.0,0.0,0.0,0.0,0.0,1.0
Frauen-und Kinderschutzhaus Aschersleben,2291,Sachsen-Anhalt,Landkreis,Salzlandkreis,51.7559549,11.462134,0.0,0.28346456692913385,0.0,0.7165354330708661,0.0,0.0
Frauen-und Kinderschutzhaus Schwäbisch Hall,2176,Baden-Württemberg,Landkreis,Schwäbisch Hall,49.112065275931,9.732801718754,0.0,0.09448818897637795,0.007874015748031496,0.6850393700787402,0.0,0.2125984251968504
Frauen-und Kinderschutzhaus Tuttlingen,2254,Baden-Württemberg,Landkreis,Tuttlingen,47.978972871,8.814629638902,0.0,0.005249343832020997,0.05249343832020997,0.9422572178477691,0.0,0.0
Frauen-und Kinderschutzwohnung &quotZuflucht&quot Lk Görlitz,2338,Sachsen,Landkreis,Görlitz,50.883994699653,14.806442202914,0.0,0.0,0.0,0.0,0.0,1.0
Frauenhaus,2109,Brandenburg,Landkreis,Elbe-Elster,51.628227951142,13.713308618555,0.023622047244094488,0.2230971128608924,0.0,0.7506561679790026,0.0026246719160104987,0.0
Frauenhaus,2142,Bayern,Kreisfreie Stadt,Bayreuth,49.9425551,11.5744543,0.01837270341207349,0.026246719160104987,0.0,0.9553805774278216,0.0,0.0
Frauenhaus,2192,Bayern,Kreisfreie Stadt,Bamberg,49.9006357,10.8997336,0.0,0.0,0.0,0.8162729658792651,0.0,0.1837270341207349
Frauenhaus,2341,Baden-Württemberg,Stadtkreis,Karlsruhe,49.0068705,8.4034195,0.0,0.007874015748031496,0.10498687664041995,0.5984251968503937,0.010498687664041995,0.2782152230971129
Frauenhaus,2401,Niedersachsen,Landkreis,Nienburg (Weser),52.6380924,9.2084155,0.0,0.0,0.0,0.9921259842519685,0.0,0.007874015748031496
Frauenhaus,2407,Hessen,Landkreis,Groß-Gerau,49.9194456,8.4852426,0.0,0.0,0.0,1.0,0.0,0.0
Frauenhaus AWO Kreisverband Braunschweig e.V.,2160,Niedersachsen,Kreisfreie Stadt,Braunschweig,52.2646577,10.5236066,0.0,0.0,0.0,0.0,0.0,1.0
Frauenhaus Ahrweiler,2412,Rheinland-Pfalz,Landkreis,Ahrweiler,50.541523495852,7.120312435242,0.01098901098901099,0.0,0.057692307692307696,0.8928571428571429,0.038461538461538464,0.0
Frauenhaus Alb-Donau-Kreis,2314,Baden-Württemberg,Stadtkreis,Ulm,48.401878420682,9.995374632586,0.0,0.0,0.0,0.0,0.0,1.0
Frauenhaus Alsdorf,2244,Nordrhein-Westfalen,Kreis,Städteregion Aachen,50.871672283047,6.208659018565,0.007874015748031496,0.047244094488188976,0.11548556430446194,0.8083989501312336,0.02099737532808399,0.0
Frauenhaus Amberg,2493,Bayern,Kreisfreie Stadt,Amberg,49.434897926183,11.845632636832,0.0,0.5047619047619047,0.0,0.47619047619047616,0.0,0.01904761904761905
Frauenhaus Ansbach,2213,Bayern,Kreisfreie Stadt,Ansbach,49.298815058048,10.573480723219,0.0,0.0,0.0,0.0,0.0,1.0
Frauenhaus Arnsberg,2182,Nordrhein-Westfalen,Kreis,Hochsauerlandkreis,51.407732617724,8.051075898828,0.0,0.005249343832020997,0.07611548556430446,0.8766404199475065,0.04199475065616798,0.0
Frauenhaus Augsburg,2243,Bayern,Kreisfreie Stadt,Augsburg,48.3668041,10.8986971,0.0,0.010498687664041995,0.0,0.12073490813648294,0.0,0.868766404199475
Frauenhaus BORA e.V.,2449,Berlin,Kreisfreie Stadt,Berlin,52.55712455,13.448277760058,0.0,0.0,0.0,0.0,0.0,1.0
Frauenhaus Bad Hersfeld,2114,Hessen,Landkreis,Hersfeld-Rotenburg,50.869468708997,9.714945143903,0.0,0.007874015748031496,0.013123359580052493,0.9501312335958005,0.028871391076115485,0.0
Frauenhaus Bad Kreuznach,2053,Rheinland-Pfalz,Landkreis,Bad Kreuznach,49.8428494,7.8667379,0.0,0.02099737532808399,0.05249343832020997,0.9081364829396326,0.01837270341207349,0.0
Frauenhaus Bergisch Gladbach,2067,Nordrhein-Westfalen,Kreis,Rheinisch-Bergischer Kreis,50.992223921021,7.153430002869,0.0026246719160104987,0.0,0.15223097112860892,0.8451443569553806,0.0,0.0
Frauenhaus Bergstraße,2043,Hessen,Landkreis,Bergstraße,49.688967095718,8.617601744187,0.0026246719160104987,0.028871391076115485,0.0,0.94750656167979,0.02099737532808399,0.0
Frauenhaus Bitterfeld-Wolfen,2295,Sachsen-Anhalt,Landkreis,Anhalt-Bitterfeld,51.641033099699,12.307324408998,0.02099737532808399,0.4330708661417323,0.0,0.5459317585301837,0.0,0.0
Frauenhaus Bocholt,2240,Nordrhein-Westfalen,Kreis,Borken,51.851967818808,6.587526413286,0.015748031496062992,0.13910761154855644,0.0,0.8451443569553806,0.0,0.0
Frauenhaus Bochum,2283,Nordrhein-Westfalen,Kreisfreie Stadt,Bochum,51.4818111,7.2196635,0.03412073490813648,0.047244094488188976,0.0,0.9081364829396326,0.010498687664041995,0.0
Frauenhaus Bonn - Frauen helfen Frauen e.V.,2167,Nordrhein-Westfalen,Kreisfreie Stadt,Bonn,50.729451611876,7.083363726367,0.0,0.01837270341207349,0.0,0.9816272965879265,0.0,0.0
Frauenhaus Bremerhaven,2369,Bremen,Kreisfreie Stadt,Bremerhaven,53.529776471842,8.622328260819,0.0,0.0,0.0026246719160104987,0.0,0.0,0.9973753280839895
Frauenhaus Burghausen,2252,Bayern,Landkreis,Altötting,48.170001152799,12.82481067792,0.0,0.0,0.07874015748031496,0.5879265091863517,0.0,0.3333333333333333
Frauenhaus Chemnitz,2099,Sachsen,Kreisfreie Stadt,Chemnitz,50.832365999642,12.920172846924,0.0,0.0,0.22572178477690288,0.0,0.0,0.7742782152230971
Frauenhaus Coburg,2224,Bayern,Kreisfreie Stadt,Coburg,50.257505531706,10.961128141975,0.0,0.0,0.13385826771653545,0.8661417322834646,0.0,0.0
Frauenhaus Dachau,2246,Bayern,Landkreis,Dachau,48.259621637411,11.448716677201,0.005249343832020997,0.0,0.0,0.0,0.0,0.994750656167979
Frauenhaus Darmstadt,2070,Hessen,Kreisfreie Stadt,Darmstadt,49.885947405614,8.654001172839,0.0,0.026246719160104987,0.03937007874015748,0.9343832020997376,0.0,0.0
Frauenhaus Datteln,2169,Nordrhein-Westfalen,Kreis,Recklinghausen,51.651767115463,7.328764232949,0.0,0.0,0.24671916010498687,0.7532808398950132,0.0,0.0
Frauenhaus Dessau-Roßlau,2304,Sachsen-Anhalt,Kreisfreie Stadt,Dessau-Roßlau,51.8311104,12.2429261,0.0,0.0,0.0,0.0,0.0,1.0
Frauenhaus Diakonisches Werk Hamburg,2366,Hamburg,Kreisfreie Stadt,Hamburg,53.596621886976,10.018615715002,0.0,0.0,0.0,0.0,0.0,1.0
Frauenhaus Dithmarschen,2395,Schleswig-Holstein,Kreis,Dithmarschen,54.193570221951,9.100838263545,0.0,0.01837270341207349,0.0,0.5144356955380578,0.0,0.4671916010498688
Frauenhaus Donnersbergkreis,2221,Rheinland-Pfalz,Landkreis,Donnersbergkreis,49.6669591,7.9801167,0.03412073490813648,0.04461942257217848,0.0,0.9212598425196851,0.0,0.0
Frauenhaus Duisburg gGmbH,2203,Nordrhein-Westfalen,Kreisfreie Stadt,Duisburg,51.434999,6.759562,0.01837270341207349,0.03937007874015748,0.06561679790026247,0.868766404199475,0.007874015748031496,0.0
Frauenhaus Düsseldorf,2419,Nordrhein-Westfalen,Kreisfreie Stadt,Düsseldorf,51.2418056,6.8082556,0.0,0.0,0.056022408963585436,0.9439775910364145,0.0,0.0
Frauenhaus EN,2073,Nordrhein-Westfalen,Kreis,Ennepe-Ruhr-Kreis,51.4438167,7.3417483,0.005249343832020997,0.08136482939632546,0.0,0.9133858267716536,0.0,0.0
Frauenhaus Eisenach,2105,Thüringen,Kreisfreie Stadt,Eisenach,50.990688888944,10.304182716389,0.0,0.0,0.3884514435695538,0.2440944881889764,0.0,0.3674540682414698
Frauenhaus Emden,2088,Niedersachsen,Kreisfreie Stadt,Emden,53.366076745762,7.207059748026,0.0,0.0,0.0,0.0,0.0,1.0
Frauenhaus Erbach,2261,Hessen,Landkreis,Odenwaldkreis,49.653690533425,8.995164437466,0.0,0.0,0.015748031496062992,0.984251968503937,0.0,0.0
Frauenhaus Erding,2362,Bayern,Landkreis,Erding,48.304271224419,11.90594429271,0.0,0.26246719160104987,0.02099737532808399,0.6430446194225722,0.07349081364829396,0.0
Frauenhaus Erfurt,2149,Thüringen,Kreisfreie Stadt,Erfurt,50.97579155,11.020273533775,0.0,0.0,0.06036745406824147,0.9396325459317585,0.0,0.0
Frauenhaus Espelkamp,2184,Nordrhein-Westfalen,Kreis,Minden-Lübbecke,52.375750324544,8.632890486707,0.005249343832020997,0.16010498687664043,0.2545931758530184,0.48556430446194226,0.09448818897637795,0.0
Frauenhaus Essen,2143,Nordrhein-Westfalen,Kreisfreie Stadt,Essen,51.438379602305,7.009099068551,0.015748031496062992,0.01837270341207349,0.0,0.9658792650918635,0.0,0.0
Frauenhaus Esslingen,2065,Baden-Württemberg,Landkreis,Esslingen,48.741421196937,9.310220283594,0.01837270341207349,0.09448818897637795,0.0,0.8871391076115486,0.0,0.0
Frauenhaus FFB,2116,Bayern,Landkreis,Fürstenfeldbruck,48.1717756,11.2623294,0.0,0.0,0.0,0.0,0.0,1.0
Frauenhaus Flensburg,2255,Schleswig-Holstein,Kreisfreie Stadt,Flensburg,54.79485029629,9.423378659978,0.005249343832020997,0.0026246719160104987,0.0,0.9921259842519685,0.0,0.0
Frauenhaus Frankenthal,2123,Rheinland-Pfalz,Kreisfreie Stadt,Frankenthal (Pfalz),49.5377072,8.3560768,0.0,0.0,0.0,0.9973753280839895,0.0026246719160104987,0.0
Frauenhaus Frankfurt (Oder),2248,Brandenburg,Kreisfreie Stadt,Frankfurt (Oder),52.343312285202,14.546619410747,0.08661417322834646,0.0,0.0,0.9133858267716536,0.0,0.0
Frauenhaus Freising,2422,Bayern,Landkreis,Freising,48.399763713312,11.735230175261,0.04956268221574344,0.0,0.02040816326530612,0.21282798833819241,0.0,0.717201166180758
Frauenhaus Freudenstadt,2215,Baden-Württemberg,Landkreis,Freudenstadt,48.473534333796,8.420503660913,0.0,0.013123359580052493,0.031496062992125984,0.9238845144356955,0.0,0.031496062992125984
Frauenhaus Fulda,2294,Hessen,Landkreis,Fulda,50.555220369978,9.649742916617,0.0,0.005249343832020997,0.0,0.994750656167979,0.0,0.0
Frauenhaus Fürstenwalde,2388,Brandenburg,Landkreis,Oder-Spree,52.358683193219,14.065068707361,0.0,0.0,0.0,0.0,0.0,1.0
Frauenhaus Fürth,2301,Bayern,Kreisfreie Stadt,Fürth,49.4668322,10.9852942,0.0,0.0,0.0,0.994750656167979,0.005249343832020997,0.0
Frauenhaus Gelsenkirchen,2112,Nordrhein-Westfalen,Kreisfreie Stadt,Gelsenkirchen,51.540968835085,7.111938609989,0.0,0.0026246719160104987,0.07349081364829396,0.9238845144356955,0.0,0.0
Frauenhaus Gera,2421,Thüringen,Kreisfreie Stadt,Gera,50.8772301,12.0796208,0.0,0.0,0.0,0.0,0.0,1.0
Frauenhaus Gifhorn,2513,Niedersachsen,Landkreis,Gifhorn,52.5031666,10.5145813,0.0,0.0,0.0,1.0,0.0,0.0
Frauenhaus Gotha,2026,Thüringen,Landkreis,Gotha,50.943234424969,10.717486357956,0.0,0.24146981627296588,0.0,0.6509186351706037,0.0,0.10761154855643044
Frauenhaus Greifswald,2146,Mecklenburg-Vorpommern,Landkreis,Vorpommern-Greifswald,54.08939506011,13.379945601414,0.0026246719160104987,0.3963254593175853,0.0,0.005249343832020997,0.1994750656167979,0.3963254593175853
Frauenhaus Gütersloh,2267,Nordrhein-Westfalen,Kreis,Gütersloh,51.9063997,8.3782078,0.0,0.0,0.12073490813648294,0.8792650918635171,0.0,0.0
Frauenhaus Hagar,2155,Bayern,Kreisfreie Stadt,Nürnberg,49.454987367495,11.078057924511,0.0,0.0,0.0,0.0,0.0,1.0
Frauenhaus Hameln e.V.,2113,Niedersachsen,Landkreis,Hameln-Pyrmont,52.105920892881,9.364572592101,0.0,0.07086614173228346,0.14960629921259844,0.7795275590551181,0.0,0.0
Frauenhaus Hamm,2171,Nordrhein-Westfalen,Kreisfreie Stadt,Hamm,51.6697042432,7.831726274505,0.013123359580052493,0.2099737532808399,0.08398950131233596,0.6902887139107612,0.0026246719160104987,0.0
Frauenhaus Hanau,2055,Hessen,Landkreis,Main-Kinzig-Kreis,50.121842157395,8.93035691488,0.023622047244094488,0.023622047244094488,0.005249343832020997,0.94750656167979,0.0,0.0
Frauenhaus Hannover - Frauen helfen Frauen e.V.,2013,Niedersachsen,Landkreis,Region Hannover,52.377210097868,9.745326084829,0.0,0.03674540682414698,0.0,0.963254593175853,0.0,0.0
Frauenhaus Hartengrube,2284,Schleswig-Holstein,Kreisfreie Stadt,Lübeck,53.861924849136,10.683346452091,0.0,0.0026246719160104987,0.0,0.9973753280839895,0.0,0.0
Frauenhaus Herford,2033,Nordrhein-Westfalen,Kreis,Herford,52.1196393,8.6637749,0.010498687664041995,0.005249343832020997,0.04199475065616798,0.937007874015748,0.005249343832020997,0.0
Frauenhaus Herne,2032,Nordrhein-Westfalen,Kreisfreie Stadt,Herne,51.5435523,7.2176455,0.049868766404199474,0.03937007874015748,0.026246719160104987,0.8792650918635171,0.005249343832020997,0.0
Frauenhaus Herten,2157,Nordrhein-Westfalen,Kreisfreie Stadt,Gelsenkirchen,51.572645954604,7.131574084656,0.0,0.0,0.2650918635170604,0.7349081364829396,0.0,0.0
Frauenhaus Hildesheim e.V.,2194,Niedersachsen,Landkreis,Hildesheim,52.152522919656,9.950775478638,0.13648293963254593,0.17585301837270342,0.0,0.6745406824146981,0.013123359580052493,0.0
Frauenhaus Hochfranken,2119,Bayern,Landkreis,Wunsiedel i. Fichtelgebirge,50.162945060814,12.134807622047,0.0,0.0,0.8582677165354331,0.13385826771653545,0.007874015748031496,0.0
Frauenhaus Idar-Oberstein,2183,Rheinland-Pfalz,Landkreis,Birkenfeld,49.699458006547,7.321442009631,0.15223097112860892,0.02099737532808399,0.013123359580052493,0.8136482939632546,0.0,0.0
Frauenhaus Kassel,2165,Hessen,Kreisfreie Stadt,Kassel,51.273161334306,9.466445816736,0.0,0.0,0.06036745406824147,0.9396325459317585,0.0,0.0
Frauenhaus Kaufbeuren-Ostallgäu,2370,Bayern,Kreisfreie Stadt,Kaufbeuren,47.88994184441,10.626136661017,0.0,0.7570621468926554,0.0,0.24293785310734464,0.0,0.0
Frauenhaus Kirchheim,2173,Baden-Württemberg,Landkreis,Esslingen,48.645195802054,9.452899259968,0.005249343832020997,0.11548556430446194,0.0,0.8792650918635171,0.0,0.0
Frauenhaus Kirchheim,2400,Baden-Württemberg,Landkreis,Esslingen,48.645245834595,9.452797210129,0.0,0.6875,0.0,0.3125,0.0,0.0
Frauenhaus Koblenz,2413,Rheinland-Pfalz,Kreisfreie Stadt,Koblenz,50.350559513859,7.592017311078,0.005494505494505495,0.0,0.005494505494505495,0.989010989010989,0.0,0.0
Frauenhaus Köthen,2161,Sachsen-Anhalt,Landkreis,Anhalt-Bitterfeld,51.75046975,11.988520313845,0.0,0.0,0.06824146981627296,0.0026246719160104987,0.0,0.9291338582677166
Frauenhaus Landau,2332,Rheinland-Pfalz,Kreisfreie Stadt,Landau in der Pfalz,49.19988782812,8.113401055813,0.0,0.026246719160104987,0.03674540682414698,0.937007874015748,0.0,0.0
Frauenhaus Lauchhammer,2346,Brandenburg,Landkreis,Oberspreewald-Lausitz,51.4957085,13.7605753,0.2992125984251969,0.5065616797900262,0.0,0.047244094488188976,0.0,0.14698162729658792
Frauenhaus Lila Villa e.V.,2409,Rheinland-Pfalz,Landkreis,Bad Dürkheim,49.4612447,8.1705981,0.0521978021978022,0.024725274725274724,0.0,0.9230769230769231,0.0,0.0
Frauenhaus Lippe,2238,Nordrhein-Westfalen,Kreis,Lippe,51.938132853507,8.87196878474,0.047244094488188976,0.06299212598425197,0.03412073490813648,0.84251968503937,0.013123359580052493,0.0
Frauenhaus Ludwigsburg,2223,Baden-Württemberg,Landkreis,Ludwigsburg,48.905138982478,9.175657488432,0.13910761154855644,0.06824146981627296,0.0,0.7926509186351706,0.0,0.0
Frauenhaus Ludwigshafen,2415,Rheinland-Pfalz,Kreisfreie Stadt,Ludwigshafen am Rhein,49.479714236326,8.449962862506,0.0,0.005494505494505495,0.0,0.9807692307692307,0.0,0.013736263736263736
Frauenhaus Lüchow,2371,Niedersachsen,Landkreis,Lüchow-Dannenberg,52.969714748761,11.15518272981,0.0,0.0,0.0,0.0,0.0,1.0
Frauenhaus Mainz,2411,Rheinland-Pfalz,Kreisfreie Stadt,Mainz,49.986824590308,8.271431806591,0.005494505494505495,0.0,0.0,0.9945054945054945,0.0,0.0
Frauenhaus Mayen-Koblenz,2426,Rheinland-Pfalz,Landkreis,Mayen-Koblenz,50.325712347282,7.2284572929,0.00303951367781155,0.015197568389057751,0.11246200607902736,0.8541033434650456,0.015197568389057751,0.0
Frauenhaus Meiningen,2057,Thüringen,Landkreis,Schmalkalden-Meiningen,50.565930470512,10.408470644478,0.0,0.0,0.33858267716535434,0.4225721784776903,0.0,0.2388451443569554
Frauenhaus Murnau,2127,Bayern,Landkreis,Garmisch-Partenkirchen,47.678189261344,11.200951713805,0.07462686567164178,0.5970149253731343,0.0,0.3283582089552239,0.0,0.0
Frauenhaus Mönchengladbach,2337,Nordrhein-Westfalen,Kreisfreie Stadt,Mönchengladbach,51.201782299521,6.421618467145,0.02099737532808399,0.0026246719160104987,0.10498687664041995,0.8713910761154856,0.0,0.0
Frauenhaus München,2387,Bayern,Kreisfreie Stadt,München,48.1371079,11.5753822,0.0,0.0,0.0,0.0,0.0,1.0
Frauenhaus Neunkirchen,2010,Saarland,Landkreis,Neunkirchen,49.37167025,7.207534594691,0.0,0.013123359580052493,0.3333333333333333,0.6535433070866141,0.0,0.0
Frauenhaus Neuruppin,2340,Brandenburg,Landkreis,Ostprignitz-Ruppin,52.920470743076,12.805888514342,0.0,0.0,0.0,0.0,0.0,1.0
Frauenhaus Neustadt,2201,Rheinland-Pfalz,Kreisfreie Stadt,Neustadt an der Weinstraße,49.349491832835,8.141965744074,0.0,0.023622047244094488,0.0,0.9763779527559056,0.0,0.0
Frauenhaus Norderstedt,2303,Schleswig-Holstein,Kreis,Segeberg,53.7089898,9.9891914,0.0,0.06824146981627296,0.013123359580052493,0.49606299212598426,0.005249343832020997,0.41732283464566927
Frauenhaus Nordschwaben,2514,Bayern,Landkreis,Dillingen a.d. Donau,48.6042127,10.5888474,0.0,0.0,0.0,0.0,0.0,1.0
Frauenhaus Northeim,2468,Niedersachsen,Landkreis,Northeim,51.708197825579,9.999778867737,0.004784688995215311,0.14832535885167464,0.019138755980861243,0.5311004784688995,0.0,0.2966507177033493
Frauenhaus Nürnberg,2147,Bayern,Kreisfreie Stadt,Nürnberg,49.454987367495,11.078057924511,0.03674540682414698,0.13123359580052493,0.0,0.8241469816272966,0.007874015748031496,0.0
Frauenhaus Oberhausen,2134,Nordrhein-Westfalen,Kreisfreie Stadt,Oberhausen,51.466433645076,6.858153386625,0.0,0.0,0.0,1.0,0.0,0.0
Frauenhaus Oberursel,2214,Hessen,Landkreis,Hochtaunuskreis,50.203012037124,8.578525319621999,0.02099737532808399,0.005249343832020997,0.08398950131233596,0.884514435695538,0.005249343832020997,0.0
Frauenhaus Olpe,2047,Nordrhein-Westfalen,Kreis,Olpe,51.030930004953,7.855977750318,0.0,0.0,0.1784776902887139,0.821522309711286,0.0,0.0
Frauenhaus Ortenau,2235,Baden-Württemberg,Landkreis,Ortenaukreis,48.472922532591,7.96749836209,0.0,0.03937007874015748,0.0,0.0,0.0,0.9606299212598425
Frauenhaus Ostholstein,2189,Schleswig-Holstein,Kreis,Ostholstein,54.119768481237,10.631741869357,0.005249343832020997,0.031496062992125984,0.0,0.8818897637795275,0.005249343832020997,0.07611548556430446
Frauenhaus Paderborn,2023,Nordrhein-Westfalen,Kreis,Paderborn,51.711630197753,8.754784819168,0.0,0.010498687664041995,0.07874015748031496,0.8976377952755905,0.013123359580052493,0.0
Frauenhaus Passau,2125,Bayern,Kreisfreie Stadt,Passau,48.57363833286,13.451816048151,0.0,0.5853018372703412,0.005249343832020997,0.0,0.0,0.4094488188976378
Frauenhaus Pinneberg,2264,Schleswig-Holstein,Kreis,Pinneberg,53.651379970069,9.789546578719,0.0,0.007874015748031496,0.0,0.9921259842519685,0.0,0.0
Frauenhaus Pirmasens,2417,Rheinland-Pfalz,Kreisfreie Stadt,Pirmasens,49.206297144295,7.5975454991269995,0.027855153203342618,0.0,0.17548746518105848,0.7966573816155988,0.0,0.0
Frauenhaus Potsdam,2298,Brandenburg,Kreisfreie Stadt,Potsdam,52.401823067332,13.060633141753,0.0,0.0,0.0,0.0,0.0,1.0
Frauenhaus Recklinghausen e.V.,2380,Nordrhein-Westfalen,Kreis,Recklinghausen,51.562289600477,7.197057131299,0.0,0.015748031496062992,0.03412073490813648,0.9501312335958005,0.0,0.0
Frauenhaus Remscheid,2356,Nordrhein-Westfalen,Kreis,Rheinisch-Bergischer Kreis,51.1463909,7.2148641,0.007874015748031496,0.015748031496062992,0.028871391076115485,0.94750656167979,0.0,0.0
Frauenhaus Rendsburg gGmbH,2191,Schleswig-Holstein,Kreis,Rendsburg-Eckernförde,54.308288610642,9.658791079076,0.12073490813648294,0.10498687664041995,0.0,0.7454068241469817,0.023622047244094488,0.005249343832020997
Frauenhaus Reutlingen,2245,Baden-Württemberg,Landkreis,Reutlingen,48.490244306328,9.22265822019,0.0,0.0,0.0,0.0,0.0,1.0
Frauenhaus Rhein - Erftkreis e.V.,2076,Nordrhein-Westfalen,Kreis,Rhein-Erft-Kreis,50.8072763,6.8330117999999995,0.010498687664041995,0.007874015748031496,0.12335958005249344,0.8582677165354331,0.0,0.0
Frauenhaus Rheine,2313,Nordrhein-Westfalen,Kreis,Steinfurt,52.275648335048,7.43452908728,0.013123359580052493,0.0,0.12073490813648294,0.8530183727034121,0.013123359580052493,0.0
Frauenhaus Rodgau,2166,Hessen,Landkreis,Offenbach,50.021737483593,8.882036802864,0.0,0.031496062992125984,0.0,0.968503937007874,0.0,0.0
Frauenhaus Rosenheim/Traunstein,2269,Bayern,Kreisfreie Stadt,Rosenheim,47.8571272,12.1181047,0.04461942257217848,0.48556430446194226,0.14173228346456693,0.32808398950131235,0.0,0.0
Frauenhaus Saarbrücken,2009,Saarland,Landkreis,Regionalverband Saarbrücken,49.234338155586,6.986639524139,0.0,0.0,0.14435695538057744,0.8556430446194225,0.0,0.0
Frauenhaus Saarlouis,2217,Saarland,Landkreis,Saarlouis,49.319469368893,6.753084518304,0.0,0.0,0.2047244094488189,0.7952755905511811,0.0,0.0
Frauenhaus Salzgitter,2128,Niedersachsen,Kreisfreie Stadt,Salzgitter,52.159624591925,10.331093344387,0.1732283464566929,0.18110236220472442,0.0,0.031496062992125984,0.023622047244094488,0.5905511811023622
Frauenhaus Schwabach,2177,Bayern,Kreisfreie Stadt,Schwabach,49.329349195087,11.024939052197,0.0,0.0,0.0,1.0,0.0,0.0
Frauenhaus Schwarzenbek,2263,Schleswig-Holstein,Kreis,Herzogtum Lauenburg,53.503650426025,10.483866451312,0.0,0.0,0.0,1.0,0.0,0.0
Frauenhaus Schwedt,2079,Brandenburg,Landkreis,Uckermark,53.072867194575,14.277710475059,0.0,0.28608923884514437,0.0,0.0,0.0,0.7139107611548556
Frauenhaus Siegen,2154,Nordrhein-Westfalen,Kreis,Siegen-Wittgenstein,50.8759626,8.0164616,0.0,0.03937007874015748,0.049868766404199474,0.910761154855643,0.0,0.0
Frauenhaus Singen,2237,Baden-Württemberg,Landkreis,Konstanz,47.762044359329,8.853405053013,0.0,0.0,0.11548556430446194,0.884514435695538,0.0,0.0
Frauenhaus SkF,2117,Bayern,Kreisfreie Stadt,Würzburg,49.7646014,9.9055338,0.0,0.0,0.0,1.0,0.0,0.0
Frauenhaus SkF Karlsruhe,2212,Baden-Württemberg,Stadtkreis,Karlsruhe,49.010942043401,8.392288331104,0.026246719160104987,0.3228346456692913,0.026246719160104987,0.6141732283464567,0.0,0.010498687664041995
Frauenhaus Soest,2144,Nordrhein-Westfalen,Kreis,Soest,51.565331935758,8.097908720838,0.0,0.023622047244094488,0.16272965879265092,0.8110236220472441,0.0026246719160104987,0.0
Frauenhaus Sondershausen,2038,Thüringen,Landkreis,Kyffhäuserkreis,51.3700633,10.8491714,0.14173228346456693,0.07611548556430446,0.4645669291338583,0.16010498687664043,0.023622047244094488,0.13385826771653545
Frauenhaus Sozialdienst katholischer Frauen e.V.,2247,Hessen,Landkreis,Gießen,50.572063246443,8.667524534963,0.010498687664041995,0.06299212598425197,0.028871391076115485,0.8976377952755905,0.0,0.0
Frauenhaus Speyer,2174,Rheinland-Pfalz,Kreisfreie Stadt,Speyer,49.322620194502,8.429573035315,0.031496062992125984,0.013123359580052493,0.013123359580052493,0.9238845144356955,0.01837270341207349,0.0
Frauenhaus Stendal,2028,Sachsen-Anhalt,Landkreis,Stendal,52.605557128017,11.847668159234999,0.0,0.0,0.0,0.0,0.0,1.0
Frauenhaus Stormarn,2343,Schleswig-Holstein,Kreis,Stormarn,53.674312919727,10.231099789877,0.05789473684210526,0.08421052631578947,0.0,0.8052631578947368,0.010526315789473684,0.042105263157894736
Frauenhaus Straubing,2108,Bayern,Kreisfreie Stadt,Straubing,48.8777333,12.5801539,0.0,0.03412073490813648,0.0026246719160104987,0.7690288713910761,0.0,0.1942257217847769
Frauenhaus Telgte,2133,Nordrhein-Westfalen,Kreis,Warendorf,51.984441708803,7.788351593569,0.0,0.0,0.10236220472440945,0.8976377952755905,0.0,0.0
Frauenhaus Ulm,2230,Baden-Württemberg,Stadtkreis,Ulm,48.402932597842,9.999279928912,0.0,0.0,0.07874015748031496,0.7795275590551181,0.0,0.14173228346456693
Frauenhaus Unna,2233,Nordrhein-Westfalen,Kreis,Unna,51.55022541813,7.691389709733,0.0,0.0,0.01837270341207349,0.9816272965879265,0.0,0.0
Frauenhaus Warendorf,2074,Nordrhein-Westfalen,Kreis,Warendorf,51.9501568,7.9840382,0.010498687664041995,0.010498687664041995,0.04199475065616798,0.9343832020997376,0.0026246719160104987,0.0
Frauenhaus Weiden,2071,Bayern,Kreisfreie Stadt,Weiden i.d. OPf.,49.677827673914,12.154750706237,0.12073490813648294,0.23622047244094488,0.0,0.5695538057742782,0.07349081364829396,0.0
Frauenhaus Weimar,2292,Thüringen,Kreisfreie Stadt,Weimar,50.982827330819,11.322555165749,0.0,0.0,0.5485564304461942,0.15485564304461943,0.0,0.29658792650918636
Frauenhaus Weißenfels,2168,Sachsen-Anhalt,Landkreis,Burgenlandkreis,51.2046563,11.9710163,0.0,0.0,0.0,0.0,0.0,1.0
Frauenhaus Westerwald,2416,Rheinland-Pfalz,Landkreis,Westerwaldkreis,50.66442060915,7.821671710156,0.0,0.06442577030812324,0.0,0.9355742296918768,0.0,0.0
Frauenhaus Wetterau,2059,Hessen,Landkreis,Wetteraukreis,50.332736759446,8.762147100409,0.06561679790026247,0.11023622047244094,0.0,0.8241469816272966,0.0,0.0
Frauenhaus Wetzlar e.V.,2208,Hessen,Landkreis,Lahn-Dill-Kreis,50.559625165351,8.499134628186,0.0026246719160104987,0.07874015748031496,0.005249343832020997,0.9133858267716536,0.0,0.0
Frauenhaus Worms,2410,Rheinland-Pfalz,Kreisfreie Stadt,Worms,49.6238729,8.359877471689,0.0027472527472527475,0.04120879120879121,0.016483516483516484,0.8681318681318682,0.07142857142857142,0.0
Frauenhaus Zollernalbkreis,2046,Baden-Württemberg,Landkreis,Zollernalbkreis,48.269484562955,8.94737584922,0.0,0.1942257217847769,0.023622047244094488,0.7165354330708661,0.06561679790026247,0.0
Frauenhaus der AWO Bremen,2431,Bremen,Kreisfreie Stadt,Bremen,53.0792962,8.8016937,0.0,0.06306306306306306,0.0,0.9369369369369369,0.0,0.0
Frauenhaus der Frauenhilfe München,2348,Bayern,Kreisfreie Stadt,München,48.1351253,11.5819805,0.0,0.005249343832020997,0.2440944881889764,0.6141732283464567,0.13648293963254593,0.0
Frauenhaus des Caritasverbandes für Stadt und Landkreis Gifhorn,2285,Niedersachsen,Landkreis,Gifhorn,52.484496766686,10.540274633294,0.0,0.5748031496062992,0.0,0.26246719160104987,0.16272965879265092,0.0
Frauenhaus des Rhein-Sieg-Kreises,2228,Nordrhein-Westfalen,Kreis,Rhein-Sieg-Kreis,50.749009526955,7.221746527917,0.031496062992125984,0.026246719160104987,0.05249343832020997,0.889763779527559,0.0,0.0
Frauenhaus e.V. Solingen,2110,Nordrhein-Westfalen,Kreis,Mettmann,51.1238982,6.978047,0.047244094488188976,0.031496062992125984,0.0,0.9212598425196851,0.0,0.0
Frauenhaus für die Region Main-Rhön in Schweinfurt,2054,Bayern,Kreisfreie Stadt,Schweinfurt,50.04723375,10.224025804585,0.0,0.0,0.0,1.0,0.0,0.0
Frauenhaus im Landkreis Calw,2100,Baden-Württemberg,Landkreis,Calw,48.714306559169,8.741623063857,0.005249343832020997,0.18635170603674542,0.0026246719160104987,0.026246719160104987,0.0,0.7795275590551181
Frauenhaus im Landkreis Kassel,2035,Hessen,Landkreis,Kassel,51.2550775,9.4119007,0.0,0.013123359580052493,0.0026246719160104987,0.984251968503937,0.0,0.0
Frauenhaus im Landkreis Schwandorf,2195,Bayern,Landkreis,Schwandorf,49.3263177,12.1038045,0.0,0.0,0.13910761154855644,0.15223097112860892,0.0,0.7086614173228346
Frauenhaus und Beratungsstelle,2139,Brandenburg,Landkreis,Oder-Spree,52.1448863,14.6294413,0.0,0.0,0.08661417322834646,0.9133858267716536,0.0,0.0
"Frauenhaus, Beratungs- und Interventionsstelle Limburg",2036,Hessen,Landkreis,Limburg-Weilburg,50.387426446735,8.064561329702,0.005249343832020997,0.07086614173228346,0.03412073490813648,0.889763779527559,0.0,0.0
Frauenhäuser Geschütztes Wohnen,2327,Baden-Württemberg,Landkreis,Karlsruhe,49.104470848914,8.5913541328,0.0,0.2073490813648294,0.0,0.25196850393700787,0.0,0.5406824146981627
Frauennotruf Hochfranken,2135,Bayern,Kreisfreie Stadt,Hof,50.318924920653,11.923855529507,0.0,0.031496062992125984,0.007874015748031496,0.9606299212598425,0.0,0.0
Frauenschutz Weimarer Land,2062,Thüringen,Landkreis,Weimarer Land,51.020381404684,11.4986504232,0.0,0.0,0.0,1.0,0.0,0.0
FrauenschutzHaus Wolfenbüttel,2306,Niedersachsen,Landkreis,Wolfenbüttel,52.1625283,10.5348215,0.0,0.0,0.0,0.0,0.0,1.0
Frauenschutzangebot,2210,Sachsen,Landkreis,Erzgebirgskreis,50.4756535,12.7667543,0.0,0.5800524934383202,0.0,0.0,0.0,0.4199475065616798
Frauenschutzeinrichtung Zwickau Stadt,2044,Sachsen,Landkreis,Zwickau,50.726853592716,12.490858252887,0.0,0.0,0.0,1.0,0.0,0.0
Frauenschutzhaus,2132,Mecklenburg-Vorpommern,Landkreis,Nordwestmecklenburg,53.8965859,11.4695121,0.03430079155672823,0.14775725593667546,0.0,0.8179419525065963,0.0,0.0
Frauenschutzhaus,2219,Mecklenburg-Vorpommern,Landkreis,Rostock,53.793364322518,12.181076883324,0.0,0.0,0.18635170603674542,0.8136482939632546,0.0,0.0
Frauenschutzhaus,2310,Sachsen-Anhalt,Kreisfreie Stadt,Halle (Saale),51.4825041,11.9705452,0.0,0.0,0.0,0.0,0.0,1.0
Frauenschutzhaus Bautzen,2179,Sachsen,Landkreis,Bautzen,51.182292413586,14.424013712134,0.0,0.0,1.0,0.0,0.0,0.0
Frauenschutzhaus Bautzen,2498,Sachsen,Landkreis,Bautzen,51.182293,14.4237749,0.0,0.0,0.0,0.0,0.0,1.0
Frauenschutzhaus Dresden,2087,Sachsen,Kreisfreie Stadt,Dresden,51.0504088,13.7372621,0.0,0.0,0.0,0.0,0.0,1.0
Frauenschutzhaus Freiberg,2083,Sachsen,Landkreis,Mittelsachsen,50.895481287937,13.333490439612,0.0,0.0,0.6482939632545932,0.35170603674540685,0.0,0.0
Frauenschutzhaus Helmstedt,2290,Niedersachsen,Landkreis,Helmstedt,52.232426476168,11.004057698082,0.0,0.0026246719160104987,0.7847769028871391,0.2125984251968504,0.0,0.0
Frauenschutzhaus Magdeburg,2031,Sachsen-Anhalt,Kreisfreie Stadt,Magdeburg,52.109112469784,11.635762688513,0.0,0.0,0.0,0.0,0.0,1.0
Frauenschutzhaus Wittenberg,2319,Sachsen-Anhalt,Landkreis,Wittenberg,51.869377514536,12.646353310986001,0.02099737532808399,0.4068241469816273,0.0,0.13385826771653545,0.031496062992125984,0.4068241469816273
Frauenschutzwohnung,2242,Thüringen,Landkreis,Unstrut-Hainich-Kreis,51.11064946722,10.643128194246,0.0,0.0,0.0,0.0,0.0,1.0
Frauenschutzwohnung Altenburg,2276,Thüringen,Landkreis,Altenburger Land,50.9888921,12.429075,0.0,0.0,0.5931758530183727,0.4068241469816273,0.0,0.0
Frauenschutzwohnungen Landkreis Nordsachsen,2042,Sachsen,Landkreis,Nordsachsen,51.5628862,12.9909587,0.4776902887139108,0.48556430446194226,0.0,0.0,0.0,0.03674540682414698
Frauenschutzzentrum,2325,Nordrhein-Westfalen,Kreis,Minden-Lübbecke,52.292865585765,8.884828610875,0.03412073490813648,0.14435695538057744,0.0,0.8136482939632546,0.007874015748031496,0.0
Frauenzentrum Paula Panke e.V. - Zufluchtswohnung,2068,Berlin,Kreisfreie Stadt,Berlin,52.56961735,13.403536522993,0.0,0.0,0.0,0.0,0.0,1.0
Frauenzimmer e.V.,2082,Berlin,Kreisfreie Stadt,Berlin,52.4836896,13.352822090579,0.0,0.0,0.0,0.0,0.0,1.0
Frauenzuflucht Kaiserslautern,2236,Rheinland-Pfalz,Kreisfreie Stadt,Kaiserslautern,49.44167141989,7.76806020992,0.0,0.0,0.0,1.0,0.0,0.0
Goslarer Frauenhaus e.V.,2457,Niedersachsen,Landkreis,Goslar,51.905936897584,10.429016418709,0.0,0.22321428571428573,0.0,0.38392857142857145,0.13839285714285715,0.2544642857142857
Haus für Frauen in Not,2150,Hessen,Landkreis,Rheingau-Taunus-Kreis,50.142945932409,8.06664247563,0.03412073490813648,0.09973753280839895,0.0,0.8608923884514436,0.005249343832020997,0.0
Haus für Frauen in Not Wiesbaden,2158,Hessen,Kreisfreie Stadt,Wiesbaden,50.077813921273,8.236045029311,0.013123359580052493,0.010498687664041995,0.0,0.973753280839895,0.0026246719160104987,0.0
HerA,2164,Baden-Württemberg,Landkreis,Göppingen,48.708166939802,9.652732009254,0.0,0.0,0.0,0.0,0.0,1.0
Hestia Frauenhaus,2102,Berlin,Kreisfreie Stadt,Berlin,52.5034002,13.3386373,0.0,0.0,0.0,0.0,0.0,1.0
Hestia Zufluchtswohnungen Prenzlauer Berg,2096,Berlin,Kreisfreie Stadt,Berlin,52.5355509,13.425688849992,0.0,0.0,0.0,0.9002624671916011,0.09973753280839895,0.0
Hestia-Zufluchtswohnungen Wedding,2051,Berlin,Kreisfreie Stadt,Berlin,52.54108405,13.389616050162,0.02099737532808399,0.04199475065616798,0.0,0.889763779527559,0.047244094488188976,0.0
Hilfe für Frauen in Not-Frauenhaus Bonn e.V.,2129,Nordrhein-Westfalen,Kreisfreie Stadt,Bonn,50.737581638095,7.101763519581,0.0026246719160104987,0.03937007874015748,0.04199475065616798,0.916010498687664,0.0,0.0
Internationales Frauenhaus,2328,Nordrhein-Westfalen,Kreisfreie Stadt,Düsseldorf,51.236733864852,6.792454779053,0.0,0.0,0.04199475065616798,0.958005249343832,0.0,0.0
Jenaer Frauenhaus e.V.,2272,Thüringen,Kreisfreie Stadt,Jena,50.9463598,11.5977589,0.0,0.0,0.08661417322834646,0.9133858267716536,0.0,0.0
KARO e.V.,2266,Sachsen,Landkreis,Vogtlandkreis,50.4950632,12.1346523,0.0,0.4645669291338583,0.16535433070866143,0.3700787401574803,0.0,0.0
Kinder- und Frauenschutzwohnung der Stadt Wernigerode,2287,Sachsen-Anhalt,Landkreis,Harz,51.839931701364,10.783901991418,0.0,0.013123359580052493,0.16010498687664043,0.2572178477690289,0.0,0.5695538057742782
Mannheimer Frauenhaus,2131,Baden-Württemberg,Stadtkreis,Mannheim,49.546312398996,8.461605604247,0.0,0.04864864864864865,0.0,0.9513513513513514,0.0,0.0
Mannheimer Frauenhaus,2459,Baden-Württemberg,Stadtkreis,Mannheim,49.546312398996,8.461605604247,0.07106598984771574,0.09137055837563451,0.0,0.8375634517766497,0.0,0.0
S.H.E. - Schutzhaus für geflüchtete Frauen,2029,Sachsen,Kreisfreie Stadt,Leipzig,51.324894093361,12.374329706113,0.0,0.15485564304461943,0.0,0.03412073490813648,0.8110236220472441,0.0
Schutzhaus für Frauen und Kinder,2107,Nordrhein-Westfalen,Kreis,Euskirchen,50.616462856427,6.84026134715,0.07086614173228346,0.16010498687664043,0.015748031496062992,0.7427821522309711,0.010498687664041995,0.0
Schutzraum SEGEL Mannheim,2458,Baden-Württemberg,Stadtkreis,Mannheim,49.493452209363,8.468547144257,0.0,0.28444444444444444,0.057777777777777775,0.6177777777777778,0.008888888888888889,0.03111111111111111
Schutzwohnung im Rhein-Neckar-Kreis,2271,Baden-Württemberg,Landkreis,Rhein-Neckar-Kreis,49.54620451729,8.649864854517,0.056,0.0,0.0,0.8346666666666667,0.042666666666666665,0.06666666666666667
Schutzwohnungen Nordfriesland,2438,Schleswig-Holstein,Kreis,Nordfriesland,54.6156443,8.9676337,0.0,0.0,0.06688963210702341,0.5484949832775919,0.006688963210702341,0.3779264214046823
Schutzwohnungen für Frauen Nordfriesland,2178,Schleswig-Holstein,Kreis,Nordfriesland,54.62104206325,8.969772242358,0.0,0.0,0.0,0.6065573770491803,0.0,0.39344262295081966
SkF Frauenhaus Kaufbeuren-Ostallgäu,2444,Bayern,Kreisfreie Stadt,Kaufbeuren,47.8899307307,10.626108318125,0.0,0.0,0.0,0.0,0.0,1.0
Sofortaufnahme für gewaltbetroffene Frauen und ihre Kinder - Frauenhaus24 Hannover,2011,Niedersachsen,Landkreis,Region Hannover,52.377057435404,9.736999308768,0.0,0.0,1.0,0.0,0.0,0.0
Städtisches Frauenhaus Stuttgart,2197,Baden-Württemberg,Stadtkreis,Stuttgart,48.76986235,9.211651935853,0.05511811023622047,0.3123359580052493,0.005249343832020997,0.49868766404199477,0.0,0.12860892388451445
Wolfsburger Frauenhaus,2383,Niedersachsen,Kreisfreie Stadt,Wolfsburg,52.421175871211,10.79371507002,0.005249343832020997,0.09973753280839895,0.04461942257217848,0.7401574803149606,0.11023622047244094,0.0
Zentrale Sofortaufnahme der Frauen*- und Kinderschutzhäuser Leipzig,2056,Sachsen,Kreisfreie Stadt,Leipzig,51.3844702,12.3160085,0.0,0.0,0.0,0.0,0.0,1.0
Zufluchtswohung Matilde,2060,Berlin,Kreisfreie Stadt,Berlin,52.53713195,13.610523076316,0.0,0.0,0.0,1.0,0.0,0.0
offensiv´91 e.V. Frauenzufluchtswohnung,2037,Berlin,Kreisfreie Stadt,Berlin,52.45499615,13.514810051508,0.0,0.08923884514435695,0.0,0.46981627296587924,0.10498687664041995,0.3359580052493438
Ökumenisches Frauenhaus Pforzheim,2204,Baden-Württemberg,Stadtkreis,Pforzheim,48.8667572,8.7531246,0.0,0.04199475065616798,0.06299212598425197,0.14173228346456693,0.0,0.7532808398950132
