shelter_name,shelter_id,bundesland,bez,gen,latitude,longitude,Aufnahme möglich für Frauen mit bis zu einem Kind,Aufnahme möglich für Frauen mit mehreren Kindern,Aufnahme möglich ohne detaillierte Angabe,Keine Aufnahme möglich,Platz für Frauen ohne Kinder,keine Angabe,einrichtungsart,Gehbehinderung,Hörbehinderung/Taubheit,Sehbehinderung/Blindheit,Suchtmittelabhängigkeit
1. &amp 3. Hamburger Frauenhaus,2382,Hamburg,Kreisfreie Stadt,Hamburg,53.5528284,9.9966396,0.0,0.0,0.01549053356282272,0.0,0.0,0.9845094664371773,Frauenhaus,True,False,False,False
1. Autonomes Frauenhaus,2027,Sachsen,Kreisfreie Stadt,Leipzig,51.325187635158,12.373901299377,0.16695352839931152,0.0,0.0,0.23838209982788297,0.5946643717728055,0.0,Frauenhaus,False,False,False,False
1. Frauenhaus Köln,2140,Nordrhein-Westfalen,Kreisfreie Stadt,Köln,50.933466575848,6.998637825656,0.0051635111876075735,0.0034423407917383822,0.0008605851979345956,0.9879518072289156,0.0025817555938037868,0.0,Frauenhaus,True,False,False,False
2. Autonomes Frauenhaus Berlin,2274,Berlin,Kreisfreie Stadt,Berlin,52.516226925016,13.377744825842,0.0,0.0,0.0,0.0,0.0,1.0,Frauenhaus,False,False,False,False
2. Autonomes Frauenhaus Köln,2253,Nordrhein-Westfalen,Kreisfreie Stadt,Köln,50.921396360676,6.995416051662,0.0051635111876075735,0.014629948364888123,0.0,0.9759036144578314,0.004302925989672977,0.0,Frauenhaus,False,False,False,False
2. Hamburger Frauenhaus e.V.,2367,Hamburg,Kreisfreie Stadt,Hamburg,53.541814575369,9.998572209518,0.0,0.0,0.0,0.0,0.0,1.0,Frauenhaus,True,False,False,False
24/7 Notaufnahme der Hamburger Frauenhäuser,2039,Hamburg,Kreisfreie Stadt,Hamburg,53.554448,9.991344,0.0,0.0,0.0,0.0,0.0,1.0,,True,False,False,False
4. Frauen*- und Kinderschutzhaus Leipzig,2317,Sachsen,Kreisfreie Stadt,Leipzig,51.3406321,12.3747329,0.022375215146299483,0.17555938037865748,0.0,0.6557659208261618,0.14629948364888123,0.0,Frauenhaus,False,False,False,False
6. Autonomes Frauenhaus Hamburg,2381,Hamburg,Kreisfreie Stadt,Hamburg,53.5528284,9.9966396,0.0,0.0,0.0,0.0,0.0,1.0,Frauenhaus,False,False,False,False
AWO Frauenhaus,2297,Niedersachsen,Landkreis,Region Hannover,52.3744779,9.7385532,0.0,0.0,0.0,0.0,0.0,1.0,Frauenhaus,True,False,False,False
AWO Frauenhaus &quotLotte Lemke&quot,2103,Hessen,Landkreis,Hochtaunuskreis,50.2268308,8.6181618,0.01721170395869191,0.10154905335628227,0.0,0.8812392426850258,0.0,0.0,Frauenhaus,False,False,False,False
AWO Frauenhaus Bielefeld,2118,Nordrhein-Westfalen,Kreisfreie Stadt,Bielefeld,52.035301540103,8.526657636721,0.0,0.0034423407917383822,0.0783132530120482,0.851118760757315,0.06712564543889846,0.0,Frauenhaus,False,False,False,False
AWO Frauenhaus Iserlohn,2232,Nordrhein-Westfalen,Kreis,Märkischer Kreis,51.383210093974,7.684256826022,0.020654044750430294,0.18674698795180722,0.0,0.7831325301204819,0.00946643717728055,0.0,Frauenhaus,False,False,False,False
AWO Frauenhaus Landshut,2187,Bayern,Kreisfreie Stadt,Landshut,48.53761662542,12.153462601108,0.0,0.0,0.0,1.0,0.0,0.0,Frauenhaus,False,False,False,False
AWO Frauenhaus Ludwigslust,2148,Mecklenburg-Vorpommern,Landkreis,Ludwigslust-Parchim,53.3244914,11.4969238,0.03356282271944923,0.05249569707401033,0.0,0.8003442340791739,0.027538726333907058,0.08605851979345955,Frauenhaus,False,False,False,False
AWO Frauenhaus Neu-Ulm,2094,Bayern,Landkreis,Neu-Ulm,48.376176,10.008997602757,0.0,0.0034423407917383822,0.0,0.28055077452667815,0.0,0.7160068846815835,Frauenhaus,False,False,False,False
AWO Frauenhaus Nurdan-Eker Wiesbaden,2312,Hessen,Kreisfreie Stadt,Wiesbaden,50.092145133904,8.233820739889,0.0,0.0,0.0,1.0,0.0,0.0,Frauenhaus,False,False,False,False
AWO Frauenhaus Schaumburg,2353,Niedersachsen,Landkreis,Schaumburg,52.31830254248,9.204289693607,0.0,0.0,0.2822719449225473,0.10327022375215146,0.0,0.5679862306368331,Frauenhaus,False,False,False,False
AWO Frauenhaus Schwalm-Eder,2104,Hessen,Landkreis,Schwalm-Eder-Kreis,51.030353699843,9.41785004983,0.0,0.0,0.09896729776247848,0.9010327022375215,0.0,0.0,Frauenhaus,False,False,False,False
AWO Frauenhaus Würzburg,2138,Bayern,Kreisfreie Stadt,Würzburg,49.802231315947,9.936143759985,0.0,0.00774526678141136,0.13855421686746988,0.34509466437177283,0.008605851979345954,0.5,Frauenhaus,False,False,False,False
AWO Frauenschutzhaus Stralsund,2172,Mecklenburg-Vorpommern,Landkreis,Vorpommern-Rügen,54.3161903,13.0950601,0.0,0.0,0.4053356282271945,0.4664371772805508,0.04475043029259897,0.08347676419965576,Frauenhaus,False,False,False,False
AWO-Frauenhaus,2311,Nordrhein-Westfalen,Kreis,Kleve,51.789621872871,6.145853870316,0.0068846815834767644,0.021514629948364887,0.0,0.9716006884681584,0.0,0.0,Frauenhaus,False,False,False,False
AWO-Frauenhaus im Landkreis Harburg,2386,Niedersachsen,Landkreis,Harburg,53.360527316544,9.825140798087,0.0,0.0,0.0,0.0,0.0,1.0,Frauenhaus,False,False,False,False
AWO-Frauenhaus-Bottrop,2321,Nordrhein-Westfalen,Kreisfreie Stadt,Bottrop,51.522238111129,6.926211462971,0.012908777969018933,0.055077452667814115,0.0,0.8975903614457831,0.03442340791738382,0.0,Frauenhaus,False,False,False,False
Autonome Frauenschutzeinrichtung Brandenburg an der Havel,2347,Brandenburg,Kreisfreie Stadt,Brandenburg an der Havel,52.4155967,12.552183065949,0.0,0.0,0.0,0.0,0.0,1.0,Frauenhaus,True,False,False,False
Autonomes Bremer Frauenhaus,2198,Bremen,Kreisfreie Stadt,Bremen,53.076516637178,8.80872139115,0.0,0.0,0.0,0.0,0.0,1.0,Frauenhaus,False,True,False,False
Autonomes Frauenhaus,2081,Hessen,Landkreis,Waldeck-Frankenberg,51.11062982947,9.116401666944,0.0017211703958691911,0.04561101549053356,0.0,0.9526678141135972,0.0,0.0,Frauenhaus,False,False,False,False
Autonomes Frauenhaus,2170,Hessen,Landkreis,Main-Kinzig-Kreis,50.25418357165,9.295718601627,0.00774526678141136,0.014629948364888123,0.0034423407917383822,0.96815834767642,0.006024096385542169,0.0,Frauenhaus,False,False,False,False
Autonomes Frauenhaus Bielefeld,2220,Nordrhein-Westfalen,Kreisfreie Stadt,Bielefeld,52.0191005,8.531007,0.0,0.0,0.0025817555938037868,0.9931153184165232,0.004302925989672977,0.0,Frauenhaus,False,False,False,False
Autonomes Frauenhaus Celle,2041,Niedersachsen,Landkreis,Celle,52.620867,10.0626059,0.03356282271944923,0.08175559380378658,0.0,0.8571428571428571,0.01549053356282272,0.012048192771084338,Frauenhaus,False,False,False,False
Autonomes Frauenhaus Dortmund,2052,Nordrhein-Westfalen,Kreisfreie Stadt,Dortmund,51.5142273,7.4652789,0.0008605851979345956,0.022375215146299483,0.04388984509466437,0.9320137693631669,0.0008605851979345956,0.0,Frauenhaus,True,True,False,False
Autonomes Frauenhaus Duisburg,2199,Nordrhein-Westfalen,Kreisfreie Stadt,Duisburg,51.434999,6.759562,0.0025817555938037868,0.0,0.03442340791738382,0.959552495697074,0.0034423407917383822,0.0,Frauenhaus,False,False,False,False
Autonomes Frauenhaus Elmshorn,2049,Schleswig-Holstein,Kreis,Pinneberg,53.7542251,9.6592636,0.0017211703958691911,0.04991394148020654,0.0,0.9380378657487092,0.010327022375215147,0.0,Frauenhaus,False,False,False,False
Autonomes Frauenhaus Erlangen,2265,Bayern,Kreisfreie Stadt,Erlangen,49.59608204841,11.001999091098,0.0,0.0,0.0,0.0,0.0,0.9991394148020654,Frauenhaus,True,False,False,False
Autonomes Frauenhaus Frankfurt,2091,Hessen,Kreisfreie Stadt,Frankfurt am Main,50.1109221,8.6821267,0.08003442340791739,0.043029259896729774,0.04991394148020654,0.8209982788296041,0.006024096385542169,0.0,Frauenhaus,False,False,False,False
Autonomes Frauenhaus Gießen,2181,Hessen,Landkreis,Gießen,50.581233679102,8.666742445447,0.0,0.006024096385542169,0.060240963855421686,0.9148020654044751,0.0189328743545611,0.0,Frauenhaus,False,False,False,False
Autonomes Frauenhaus Heilbronn,2259,Baden-Württemberg,Stadtkreis,Heilbronn,49.131106886991,9.228034832273,0.0,0.016351118760757316,0.0,0.9096385542168675,0.0,0.07401032702237521,Frauenhaus,False,False,False,False
Autonomes Frauenhaus Itzehoe,2193,Schleswig-Holstein,Kreis,Steinburg,53.9242344,9.5100452,0.012048192771084338,0.0008605851979345956,0.0051635111876075735,0.9819277108433735,0.0,0.0,Frauenhaus,True,True,True,False
Autonomes Frauenhaus Kempten (Allgäu),2024,Bayern,Kreisfreie Stadt,Kempten (Allgäu),47.762382099999996,10.3245689,0.0,0.0,0.0,1.0,0.0,0.0,Frauenhaus,False,False,False,False
Autonomes Frauenhaus Kreis Plön,2034,Schleswig-Holstein,Kreis,Plön,54.232749761427,10.279783840293,0.018072289156626505,0.05938037865748709,0.00946643717728055,0.8666092943201377,0.0025817555938037868,0.04388984509466437,Frauenhaus,True,False,False,False
Autonomes Frauenhaus Leverkusen,2151,Nordrhein-Westfalen,Kreisfreie Stadt,Leverkusen,51.036439483933,6.993204651605,0.0034423407917383822,0.0017211703958691911,0.0025817555938037868,0.9853700516351118,0.0068846815834767644,0.0,Frauenhaus,False,False,False,False
Autonomes Frauenhaus Lörrach,2075,Baden-Württemberg,Landkreis,Lörrach,47.602006174985,7.6622878822819995,0.01721170395869191,0.05938037865748709,0.06282271944922548,0.4139414802065404,0.0,0.44664371772805506,Frauenhaus,False,False,False,False
Autonomes Frauenhaus Lübeck,2249,Schleswig-Holstein,Kreisfreie Stadt,Lübeck,53.867549231603,10.687671111421,0.0,0.0,0.0,1.0,0.0,0.0,Frauenhaus,True,False,False,False
Autonomes Frauenhaus Lüneburg,2066,Niedersachsen,Landkreis,Lüneburg,53.2497728,10.4197721,0.0,0.0017211703958691911,0.0,0.9475043029259896,0.0189328743545611,0.031841652323580036,Frauenhaus,False,False,False,False
Autonomes Frauenhaus Marburg,2025,Hessen,Landkreis,Marburg-Biedenkopf,50.8117327,8.7757742,0.0017211703958691911,0.028399311531841654,0.08347676419965576,0.8864027538726333,0.0,0.0,Frauenhaus,False,False,False,False
Autonomes Frauenhaus Memmingen,2069,Bayern,Kreisfreie Stadt,Memmingen,47.9848507,10.1870278,0.013769363166953529,0.0068846815834767644,0.010327022375215147,0.03098106712564544,0.03614457831325301,0.9018932874354562,Frauenhaus,False,False,False,False
Autonomes Frauenhaus Münster,2141,Nordrhein-Westfalen,Kreisfreie Stadt,Münster,51.956729697633,7.632398512595,0.0017211703958691911,0.04130808950086059,0.0,0.9569707401032702,0.0,0.0,Frauenhaus,False,False,False,False
Autonomes Frauenhaus Neumünster,2063,Schleswig-Holstein,Kreisfreie Stadt,Neumünster,54.074247318196,9.984462815518,0.00774526678141136,0.025817555938037865,0.0,0.9543889845094664,0.012048192771084338,0.0,Frauenhaus,True,False,False,False
Autonomes Frauenhaus Oldenburg e.V.,2136,Niedersachsen,Kreisfreie Stadt,Oldenburg (Oldb),53.139855192327,8.227910833021,0.0,0.0,0.0,0.0,0.05249569707401033,0.9475043029259896,Frauenhaus,True,False,False,False
Autonomes Frauenhaus Osnabrück,2089,Niedersachsen,Kreisfreie Stadt,Osnabrück,52.274435951938,8.04727121527,0.024096385542168676,0.0051635111876075735,0.0,0.9629948364888123,0.00774526678141136,0.0,Frauenhaus,False,True,False,False
Autonomes Frauenhaus Regensburg,2225,Bayern,Kreisfreie Stadt,Regensburg,48.98322105,12.151901371455,0.0,0.0,0.24010327022375216,0.5542168674698795,0.0,0.20567986230636834,Frauenhaus,True,False,False,False
Autonomes Frauenhaus Rheydt,2048,Nordrhein-Westfalen,Kreisfreie Stadt,Mönchengladbach,51.164802443583,6.446487203488,0.0,0.0017211703958691911,0.0008605851979345956,0.9836488812392427,0.013769363166953529,0.0,Frauenhaus,False,False,False,False
Autonomes Frauenhaus Rostock,2163,Mecklenburg-Vorpommern,Landkreis,Rostock,54.052138471041,12.10428681682,0.0,0.024096385542168676,0.0,0.9208261617900172,0.055077452667814115,0.0,Frauenhaus,False,False,False,False
Autonomes Frauenhaus Stuttgart,2078,Baden-Württemberg,Stadtkreis,Stuttgart,48.763984707357,9.174786993125,0.030120481927710843,0.004302925989672977,0.0189328743545611,0.9466437177280551,0.0,0.0,Frauenhaus,False,False,False,False
Autonomes Frauenhaus Trier,2137,Rheinland-Pfalz,Kreisfreie Stadt,Trier,49.749992,6.6371433,0.06884681583476764,0.012908777969018933,0.0025817555938037868,0.7607573149741824,0.0,0.0,Frauenhaus,False,False,False,False
Autonomes Frauenhaus Tübingen,2012,Baden-Württemberg,Landkreis,Tübingen,48.52057725995,9.025027129822,0.0,0.07142857142857142,0.0,0.9182444061962134,0.010327022375215147,0.0,Frauenhaus,False,False,False,False
Autonomes Frauenhaus Wedel,2188,Schleswig-Holstein,Kreis,Pinneberg,53.583195431882,9.709891071281,0.0,0.0,0.0,0.9802065404475043,0.019793459552495698,0.0,Frauenhaus,False,False,False,False
BIG Hotline - Beratung und Vermittlung,2281,Berlin,Kreisfreie Stadt,Berlin,52.5170365,13.3888599,0.0,0.0,0.0,0.0,0.0,1.0,,False,False,False,False
Beratung für Frauen/Frauenschutzhaus Biberach,2360,Baden-Württemberg,Landkreis,Biberach,48.093565642996,9.786809486456,0.0,0.0,0.0,0.0,0.0,1.0,Frauenhaus,False,False,False,False
Beratungs- und Krisenzentrum für Frauen,2122,Brandenburg,Landkreis,Havelland,52.59248315,12.328108634457,0.0,0.0,0.0,0.0,0.0,1.0,Frauenhaus,False,False,False,False
Beratungsstelle für Betroffene von häuslicher Gewalt,2190,Mecklenburg-Vorpommern,Landkreis,Vorpommern-Rügen,54.4151606,13.425834,0.010327022375215147,0.0,0.0,0.9655765920826161,0.024096385542168676,0.0,Schutzwohnung,False,False,False,False
Caritas Frauenhaus Ingolstadt,2260,Bayern,Kreisfreie Stadt,Ingolstadt,48.7630165,11.4250395,0.0,0.0,0.00774526678141136,0.12306368330464716,0.0,0.8691910499139415,Frauenhaus,True,False,False,False
Caritas Frauenhaus Landshut,2218,Bayern,Kreisfreie Stadt,Landshut,48.538071270726,12.162603569431,0.0,0.0,0.0,1.0,0.0,0.0,Frauenhaus,False,False,False,False
Caritas-Frauenhaus,2098,Berlin,Kreisfreie Stadt,Berlin,52.559654245315,13.370605613927,0.0,0.0,0.0,0.0,0.0,1.0,Frauenhaus,False,False,False,False
DRK KV Eichsfeld e.V. Frauenschutzwohnung Leinefelde,2282,Thüringen,Landkreis,Eichsfeld,51.425144533056,10.35842107336,0.0,0.0,0.0,0.0,0.0,1.0,Schutzwohnung,False,False,False,False
DRk Frauenschutzhaus Burg,2307,Sachsen-Anhalt,Landkreis,Jerichower Land,52.269276139014,11.852119516482,0.0,0.0,0.1927710843373494,0.8072289156626506,0.0,0.0,Frauenhaus,False,False,False,False
Frauen - und Kinderschutzhaus,2339,Hessen,Landkreis,Darmstadt-Dieburg,49.893363,8.836827,0.0,0.02323580034423408,0.00774526678141136,0.9647160068846816,0.004302925989672977,0.0,Frauenhaus,True,False,False,False
Frauen - und Kinderschutzhaus Filder,2080,Baden-Württemberg,Landkreis,Esslingen,48.663256354141,9.219398527189,0.0017211703958691911,0.01549053356282272,0.0,0.9827882960413081,0.0,0.0,Frauenhaus,False,False,False,False
Frauen helfen Frauen Schwarzwald Baar e.V.,2262,Baden-Württemberg,Landkreis,Schwarzwald-Baar-Kreis,48.05923605,8.462281102255,0.0,0.0,0.0,0.0,0.0,1.0,Frauenhaus,False,False,False,False
Frauen helfen Frauen e.V.,2153,Nordrhein-Westfalen,Kreisfreie Stadt,Wuppertal,51.283777950273,7.143748029476,0.0017211703958691911,0.004302925989672977,0.006024096385542169,0.9707401032702238,0.01721170395869191,0.0,Frauenhaus,True,False,True,False
Frauen helfen Frauen e.V.,2275,Bayern,Landkreis,Bad Tölz-Wolfratshausen,47.915446386913,11.423220582099,0.027538726333907058,0.08777969018932874,0.031841652323580036,0.8382099827882961,0.013769363166953529,0.0,Frauenhaus,True,False,False,False
Frauen helfen Frauen e.V. Dinslaken,2145,Nordrhein-Westfalen,Kreis,Wesel,51.567639806596,6.747491084656,0.012908777969018933,0.00774526678141136,0.05249569707401033,0.9104991394148021,0.016351118760757316,0.0,Frauenhaus,False,False,False,False
Frauen helfen Frauen e.V. Heidelberg,2152,Baden-Württemberg,Stadtkreis,Heidelberg,49.38167105,8.677039550252,0.0,0.09036144578313253,0.0,0.8855421686746988,0.024096385542168676,0.0,Frauenhaus,False,False,False,False
Frauen in Not-Frauenhaus,2061,Mecklenburg-Vorpommern,Kreisfreie Stadt,Schwerin,53.627833083723,11.405380088953,0.0,0.0,0.0189328743545611,0.73407917383821,0.0,0.2469879518072289,Frauenhaus,True,True,True,False
"Frauen und Kinderschutzhaus Baden-Baden, Landkreis Rastatt",2432,Baden-Württemberg,Stadtkreis,Baden-Baden,48.766436,8.244599718105,0.0,0.06368330464716007,0.02323580034423408,0.6626506024096386,0.0,0.07917383820998279,Frauenhaus,False,False,False,False
Frauen- und Kinderhaus Offenbach,2077,Hessen,Kreisfreie Stadt,Offenbach am Main,50.104010086859,8.76674981179,0.0,0.039586919104991396,0.0,0.959552495697074,0.0008605851979345956,0.0,Frauenhaus,False,False,False,False
Frauen- und Kinderhaus Salzwedel,2251,Sachsen-Anhalt,Landkreis,Altmarkkreis Salzwedel,52.851333063238,11.154713708822,0.0,0.08950086058519793,0.2495697074010327,0.3528399311531842,0.0,0.3080895008605852,Frauenhaus,False,False,False,False
Frauen- und Kinderhaus e.V. Uelzen,2084,Niedersachsen,Landkreis,Uelzen,52.964904113123,10.562643359678,0.0,0.0,0.0,0.0,0.0,1.0,Frauenhaus,False,False,False,False
Frauen- und Kinderhilfe Göppingen,2097,Baden-Württemberg,Landkreis,Göppingen,48.705872999684,9.649685019812999,0.0,0.03614457831325301,0.014629948364888123,0.16006884681583478,0.0,0.7891566265060241,Frauenhaus,False,False,False,False
Frauen- und Kinderschutzeinrichtung,2159,Baden-Württemberg,Landkreis,Ostalbkreis,48.8009955981,9.788703360852,0.0,0.0,0.035283993115318414,0.6583476764199656,0.0,0.306368330464716,Frauenhaus,False,False,False,False
Frauen- und Kinderschutzhaus,2180,Bayern,Kreisfreie Stadt,Regensburg,48.98322105,12.151901371455,0.0,0.0,0.0,0.9982788296041308,0.0,0.0,Frauenhaus,False,False,False,False
Frauen- und Kinderschutzhaus,2268,Baden-Württemberg,Landkreis,Ravensburg,47.764202227177,9.604661644156,0.010327022375215147,0.031841652323580036,0.0,0.5826161790017211,0.0,0.37521514629948366,Frauenhaus,False,False,False,False
Frauen- und Kinderschutzhaus,2365,Nordrhein-Westfalen,Kreis,Coesfeld,51.825388946298,7.269914071563,0.0051635111876075735,0.0,0.2469879518072289,0.7478485370051635,0.0,0.0,Frauenhaus,False,True,False,False
Frauen- und Kinderschutzhaus,2423,Nordrhein-Westfalen,Kreis,Höxter,51.502765616284,9.117780029782,0.0034423407917383822,0.012048192771084338,0.10499139414802065,0.7934595524956971,0.0025817555938037868,0.0008605851979345956,Frauenhaus,False,False,False,False
Frauen- und Kinderschutzhaus Aachen,2270,Nordrhein-Westfalen,Kreis,Städteregion Aachen,50.788047150729,6.097588101025,0.0,0.030120481927710843,0.13941480206540446,0.6738382099827883,0.1566265060240964,0.0,Frauenhaus,False,False,False,False
Frauen- und Kinderschutzhaus Ammerland Wesermarsch,2309,Niedersachsen,Landkreis,Ammerland,53.186117454157,8.002655371563,0.0,0.0,0.0,0.0,0.0,1.0,Frauenhaus,True,False,False,False
Frauen- und Kinderschutzhaus Ballenstedt,2280,Sachsen-Anhalt,Landkreis,Harz,51.722527,11.2290268,0.0,0.18158347676419967,0.0,0.423407917383821,0.39500860585197933,0.0,Frauenhaus,True,False,False,False
Frauen- und Kinderschutzhaus Bay. Untermain,2120,Bayern,Kreisfreie Stadt,Aschaffenburg,49.977036120801,9.145832480125,0.0,0.006024096385542169,0.0,0.9079173838209983,0.0,0.08519793459552495,Frauenhaus,False,False,False,False
Frauen- und Kinderschutzhaus Bernburg (Saale),2227,Sachsen-Anhalt,Landkreis,Salzlandkreis,51.783018835759,11.754099790778,0.0,0.0,0.0,0.0,0.0,1.0,Frauenhaus,False,False,False,False
Frauen- und Kinderschutzhaus Dorsten,2115,Nordrhein-Westfalen,Kreis,Recklinghausen,51.654119376554,6.963879626385,0.05593803786574871,0.04991394148020654,0.0,0.8941480206540448,0.0,0.0,Frauenhaus,False,False,False,False
Frauen- und Kinderschutzhaus Freiburg,2092,Baden-Württemberg,Stadtkreis,Freiburg im Breisgau,48.0327354,7.857524774655,0.0017211703958691911,0.0,0.0,0.9982788296041308,0.0,0.0,Frauenhaus,False,False,False,False
Frauen- und Kinderschutzhaus Hannover,2085,Niedersachsen,Landkreis,Region Hannover,52.365613497692,9.755097172235,0.0,0.0,0.0,0.0,0.0,1.0,Frauenhaus,False,False,False,False
Frauen- und Kinderschutzhaus Heckertstift,2008,Baden-Württemberg,Stadtkreis,Mannheim,49.492173028558,8.452588097834,0.06110154905335628,0.22633390705679862,0.0,0.5714285714285714,0.0,0.0025817555938037868,Frauenhaus,False,False,False,False
Frauen- und Kinderschutzhaus Heidenheim,2239,Baden-Württemberg,Landkreis,Heidenheim,48.682679502339,10.139461490017,0.0,0.0,0.0,0.0,0.0,1.0,Frauenhaus,False,False,False,False
Frauen- und Kinderschutzhaus Heilbronn,2126,Baden-Württemberg,Stadtkreis,Heilbronn,49.140048540701,9.219636925251,0.0,0.012908777969018933,0.01721170395869191,0.9698795180722891,0.0,0.0,Frauenhaus,False,False,False,False
Frauen- und Kinderschutzhaus Konstanz,2408,Baden-Württemberg,Landkreis,Konstanz,47.681740847498,9.158822455441,0.00946643717728055,0.09036144578313253,0.2099827882960413,0.346815834767642,0.018072289156626505,0.31841652323580033,Frauenhaus,False,False,False,False
Frauen- und Kinderschutzhaus Krefeld,2229,Nordrhein-Westfalen,Kreisfreie Stadt,Krefeld,51.331785882029,6.558523443055,0.008605851979345954,0.06454388984509467,0.020654044750430294,0.9061962134251291,0.0,0.0,Frauenhaus,False,False,False,False
Frauen- und Kinderschutzhaus Kreis Viersen,2156,Nordrhein-Westfalen,Kreis,Viersen,51.253916413955,6.389885517278,0.0,0.0017211703958691911,0.04819277108433735,0.9500860585197934,0.0,0.0,Frauenhaus,False,False,False,False
Frauen- und Kinderschutzhaus Landkreis Leipzig,2003,Sachsen,Landkreis,Leipzig,51.124032663272,12.506939561096,0.025817555938037865,0.1962134251290878,0.0,0.7779690189328744,0.0,0.0,Frauenhaus,False,False,False,False
Frauen- und Kinderschutzhaus Leipzig,2376,Sachsen,Kreisfreie Stadt,Leipzig,51.3406321,12.3747329,0.0,0.0,0.0,0.0,0.0,1.0,Frauenhaus,True,False,False,False
Frauen- und Kinderschutzhaus Merseburg,2030,Sachsen-Anhalt,Landkreis,Saalekreis,51.3568506,11.9904345,0.0,0.0,0.0,1.0,0.0,0.0,Frauenhaus,False,False,False,False
Frauen- und Kinderschutzhaus Moers,2330,Nordrhein-Westfalen,Kreis,Wesel,51.446276386047,6.636759749098,0.0051635111876075735,0.0,0.022375215146299483,0.9724612736660929,0.0,0.0,Frauenhaus,False,False,False,False
Frauen- und Kinderschutzhaus Neckar-Odenwald-Kreis,2234,Baden-Württemberg,Landkreis,Neckar-Odenwald-Kreis,49.3489153,9.1293829,0.06798623063683305,0.0,0.020654044750430294,0.18244406196213425,0.0189328743545611,0.7099827882960413,Frauenhaus,False,False,False,False
Frauen- und Kinderschutzhaus Neubrandenburg,2216,Mecklenburg-Vorpommern,Landkreis,Mecklenburgische Seenplatte,53.557445799999996,13.2602781,0.0,0.0,0.2710843373493976,0.19879518072289157,0.0,0.5301204819277109,Frauenhaus,False,False,False,False
Frauen- und Kinderschutzhaus Pirna,2072,Sachsen,Landkreis,Sächsische Schweiz-Osterzgebirge,50.9624776,13.9284303,0.0,0.0,0.0,0.0,0.0,1.0,Frauenhaus,False,False,False,False
Frauen- und Kinderschutzhaus Radebeul,2045,Sachsen,Landkreis,Meißen,51.1031702,13.6215949,0.0,0.0,0.7289156626506024,0.0,0.0,0.2710843373493976,Frauenhaus,False,False,False,False
Frauen- und Kinderschutzhaus Radolfzell,2258,Baden-Württemberg,Landkreis,Konstanz,47.7409243,8.955847834383,0.0,0.004302925989672977,0.025817555938037865,0.697934595524957,0.0,0.2719449225473322,Frauenhaus,False,False,False,False
Frauen- und Kinderschutzhaus Rems-Murr-Kreis,2206,Baden-Württemberg,Landkreis,Rems-Murr-Kreis,48.830787760572,9.325598847299,0.0,0.0,0.01721170395869191,0.5593803786574871,0.0,0.423407917383821,Frauenhaus,True,False,False,False
Frauen- und Kinderschutzhaus Sangerhausen,2058,Sachsen-Anhalt,Landkreis,Mansfeld-Südharz,51.4798304,11.2943896,0.0,0.0051635111876075735,0.5516351118760757,0.2512908777969019,0.0,0.1919104991394148,Frauenhaus,False,False,False,False
Frauen- und Kinderschutzhaus Staßfurt,2175,Sachsen-Anhalt,Landkreis,Salzlandkreis,51.846982652569,11.592657358624,0.0,0.0,0.0,0.14113597246127366,0.0,0.8588640275387264,Frauenhaus,False,False,False,False
Frauen- und Kinderschutzhaus Troisdorf,2130,Nordrhein-Westfalen,Kreis,Rhein-Sieg-Kreis,50.813948,7.1508684,0.008605851979345954,0.018072289156626505,0.004302925989672977,0.9655765920826161,0.0034423407917383822,0.0,Frauenhaus,True,False,False,False
Frauen- und Kinderschutzhaus Waldshut,2101,Baden-Württemberg,Landkreis,Waldshut,47.635706238259,8.272258305191,0.0,0.0,0.0,0.0,0.0,1.0,Frauenhaus,False,False,False,False
Frauen- und Kinderschutzhaus des Landkreises Oldenburg,2429,Niedersachsen,Landkreis,Oldenburg,52.903874494874,8.445246410384,0.0,0.0,0.0,0.0,0.0,0.8967297762478486,Frauenhaus,False,False,False,False
Frauen- und Kinderschutzhaus für den Kreis Mettmann,2111,Nordrhein-Westfalen,Kreis,Mettmann,51.255178427612,6.968892885788,0.0051635111876075735,0.004302925989672977,0.039586919104991396,0.9475043029259896,0.0034423407917383822,0.0,Frauenhaus,False,False,False,False
Frauen- und Kinderschutzhaus im Hohenlohekreis,2222,Baden-Württemberg,Landkreis,Hohenlohekreis,49.181288581991,9.637402053841999,0.03356282271944923,0.14629948364888123,0.0,0.8201376936316696,0.0,0.0,Frauenhaus,False,False,False,False
Frauen- und Kinderschutzhäuser Münster,2226,Nordrhein-Westfalen,Kreisfreie Stadt,Münster,51.964715367909,7.65173880509,0.076592082616179,0.12478485370051635,0.0189328743545611,0.7779690189328744,0.0017211703958691911,0.0,Frauenhaus,False,False,False,False
Frauen- und Kinderschutzwohnung Vogtlandkreis,2351,Sachsen,Landkreis,Vogtlandkreis,50.50646945,12.404751585779,0.0,0.0,0.0,0.0,0.0,1.0,Schutzwohnung,False,False,False,False
Frauen-und Kinderschutzhaus Aschersleben,2291,Sachsen-Anhalt,Landkreis,Salzlandkreis,51.7559549,11.462134,0.0,0.23752151462994836,0.0,0.7624784853700516,0.0,0.0,Frauenhaus,True,False,False,False
Frauen-und Kinderschutzhaus Schwäbisch Hall,2176,Baden-Württemberg,Landkreis,Schwäbisch Hall,49.112065275931,9.732801718754,0.0,0.08003442340791739,0.0068846815834767644,0.6970740103270223,0.0,0.21600688468158347,Frauenhaus,True,False,False,False
Frauen-und Kinderschutzhaus Tuttlingen,2254,Baden-Württemberg,Landkreis,Tuttlingen,47.978972871,8.814629638902,0.0,0.0034423407917383822,0.04819277108433735,0.9483648881239243,0.0,0.0,Frauenhaus,False,False,False,False
Frauen-und Kinderschutzwohnung &quotZuflucht&quot Lk Görlitz,2338,Sachsen,Landkreis,Görlitz,50.883994699653,14.806442202914,0.0,0.0,0.039586919104991396,0.0,0.0,0.9604130808950087,Schutzwohnung,False,False,False,False
Frauenhaus,2109,Brandenburg,Landkreis,Elbe-Elster,51.628227951142,13.713308618555,0.035283993115318414,0.23752151462994836,0.0,0.7263339070567987,0.0008605851979345956,0.0,Frauenhaus,False,False,False,False
Frauenhaus,2142,Bayern,Kreisfreie Stadt,Bayreuth,49.9425551,11.5744543,0.016351118760757316,0.031841652323580036,0.0,0.9518072289156626,0.0,0.0,Frauenhaus,False,False,False,False
Frauenhaus,2192,Bayern,Kreisfreie Stadt,Bamberg,49.9006357,10.8997336,0.0,0.0,0.0,0.7469879518072289,0.0,0.25301204819277107,Frauenhaus,False,False,False,False
Frauenhaus,2341,Baden-Württemberg,Stadtkreis,Karlsruhe,49.0068705,8.4034195,0.0,0.0034423407917383822,0.09294320137693632,0.6454388984509466,0.011187607573149742,0.2469879518072289,Frauenhaus,False,False,False,False
Frauenhaus,2401,Niedersachsen,Landkreis,Nienburg (Weser),52.6380924,9.2084155,0.0,0.0,0.0,1.0,0.0,0.0,Frauenhaus,False,False,False,False
Frauenhaus,2407,Hessen,Landkreis,Groß-Gerau,49.9194456,8.4852426,0.0,0.0,0.0,0.9939759036144579,0.0,0.0,Frauenhaus,False,False,False,False
Frauenhaus AWO Kreisverband Braunschweig e.V.,2160,Niedersachsen,Kreisfreie Stadt,Braunschweig,52.2646577,10.5236066,0.0,0.0,0.0,0.0,0.0,1.0,Frauenhaus,True,False,False,False
Frauenhaus Ahrweiler,2412,Rheinland-Pfalz,Landkreis,Ahrweiler,50.541523495852,7.120312435242,0.0051635111876075735,0.0,0.04819277108433735,0.8889845094664371,0.04561101549053356,0.0,Frauenhaus,False,False,False,False
Frauenhaus Alb-Donau-Kreis,2314,Baden-Württemberg,Stadtkreis,Ulm,48.401878420682,9.995374632586,0.0,0.0,0.0,0.0,0.0,1.0,Frauenhaus,False,False,False,False
Frauenhaus Alsdorf,2244,Nordrhein-Westfalen,Kreis,Städteregion Aachen,50.871672283047,6.208659018565,0.0025817555938037868,0.03614457831325301,0.09294320137693632,0.8364888123924269,0.031841652323580036,0.0,Frauenhaus,False,False,False,False
Frauenhaus Ansbach,2213,Bayern,Kreisfreie Stadt,Ansbach,49.298815058048,10.573480723219,0.0,0.0,0.0,0.0,0.0,1.0,Frauenhaus,False,False,False,False
Frauenhaus Arnsberg,2182,Nordrhein-Westfalen,Kreis,Hochsauerlandkreis,51.407732617724,8.051075898828,0.0,0.0025817555938037868,0.050774526678141134,0.8777969018932874,0.06884681583476764,0.0,Frauenhaus,False,False,False,False
Frauenhaus Augsburg,2243,Bayern,Kreisfreie Stadt,Augsburg,48.3668041,10.8986971,0.0,0.008605851979345954,0.0,0.1153184165232358,0.0,0.8752151462994836,Frauenhaus,False,True,False,False
Frauenhaus Bad Hersfeld,2114,Hessen,Landkreis,Hersfeld-Rotenburg,50.869468708997,9.714945143903,0.0,0.0,0.008605851979345954,0.9569707401032702,0.03442340791738382,0.0,Frauenhaus,False,False,False,False
Frauenhaus Bad Kreuznach,2053,Rheinland-Pfalz,Landkreis,Bad Kreuznach,49.8428494,7.8667379,0.0,0.012908777969018933,0.04388984509466437,0.9216867469879518,0.021514629948364887,0.0,Frauenhaus,False,False,False,False
Frauenhaus Bergisch Gladbach,2067,Nordrhein-Westfalen,Kreis,Rheinisch-Bergischer Kreis,50.992223921021,7.153430002869,0.0008605851979345956,0.0,0.07142857142857142,0.9199655765920827,0.00774526678141136,0.0,Frauenhaus,False,False,False,False
Frauenhaus Bergstraße,2043,Hessen,Landkreis,Bergstraße,49.688967095718,8.617601744187,0.0017211703958691911,0.031841652323580036,0.0,0.9432013769363167,0.02323580034423408,0.0,Frauenhaus,False,False,False,False
Frauenhaus Bitterfeld-Wolfen,2295,Sachsen-Anhalt,Landkreis,Anhalt-Bitterfeld,51.641033099699,12.307324408998,0.016351118760757316,0.37607573149741824,0.0,0.6075731497418244,0.0,0.0,Frauenhaus,False,False,False,False
Frauenhaus Bocholt,2240,Nordrhein-Westfalen,Kreis,Borken,51.851967818808,6.587526413286,0.010327022375215147,0.14974182444061962,0.0,0.8399311531841652,0.0,0.0,Frauenhaus,True,False,False,False
Frauenhaus Bochum,2283,Nordrhein-Westfalen,Kreisfreie Stadt,Bochum,51.4818111,7.2196635,0.018072289156626505,0.025817555938037865,0.0,0.9345955249569707,0.021514629948364887,0.0,Frauenhaus,False,False,False,False
Frauenhaus Bonn - Frauen helfen Frauen e.V.,2167,Nordrhein-Westfalen,Kreisfreie Stadt,Bonn,50.729451611876,7.083363726367,0.0,0.0068846815834767644,0.0,0.9913941480206541,0.0017211703958691911,0.0,Frauenhaus,False,False,False,False
Frauenhaus Bremerhaven,2369,Bremen,Kreisfreie Stadt,Bremerhaven,53.529776471842,8.622328260819,0.0,0.0,0.0,0.0,0.0,1.0,Frauenhaus,False,False,False,False
Frauenhaus Burghausen,2252,Bayern,Landkreis,Altötting,48.170001152799,12.82481067792,0.0,0.0,0.06798623063683305,0.6290877796901894,0.0,0.3029259896729776,Frauenhaus,False,False,False,False
Frauenhaus Chemnitz,2099,Sachsen,Kreisfreie Stadt,Chemnitz,50.832365999642,12.920172846924,0.0,0.0,0.18158347676419967,0.0,0.0,0.8184165232358004,Frauenhaus,True,False,False,False
Frauenhaus Coburg,2224,Bayern,Kreisfreie Stadt,Coburg,50.257505531706,10.961128141975,0.0,0.0,0.12478485370051635,0.8743545611015491,0.0,0.0,Frauenhaus,False,False,False,False
Frauenhaus Dachau,2246,Bayern,Landkreis,Dachau,48.259621637411,11.448716677201,0.035283993115318414,0.0,0.0,0.0,0.0,0.963855421686747,Frauenhaus,False,False,False,False
Frauenhaus Darmstadt,2070,Hessen,Kreisfreie Stadt,Darmstadt,49.885947405614,8.654001172839,0.006024096385542169,0.01549053356282272,0.031841652323580036,0.9466437177280551,0.0,0.0,Frauenhaus,False,False,False,False
Frauenhaus Datteln,2169,Nordrhein-Westfalen,Kreis,Recklinghausen,51.651767115463,7.328764232949,0.0,0.0,0.1514629948364888,0.8485370051635112,0.0,0.0,Frauenhaus,False,False,False,False
Frauenhaus Dessau-Roßlau,2304,Sachsen-Anhalt,Kreisfreie Stadt,Dessau-Roßlau,51.8311104,12.2429261,0.0,0.0,0.0,0.0,0.0,1.0,Frauenhaus,False,False,False,False
Frauenhaus Diakonisches Werk Hamburg,2366,Hamburg,Kreisfreie Stadt,Hamburg,53.596621886976,10.018615715002,0.0,0.0,0.0,0.0,0.0,1.0,Frauenhaus,False,False,False,False
Frauenhaus Dithmarschen,2395,Schleswig-Holstein,Kreis,Dithmarschen,54.193570221951,9.100838263545,0.0,0.04991394148020654,0.0,0.5172117039586919,0.0,0.43287435456110157,Frauenhaus,False,False,False,False
Frauenhaus Donnersbergkreis,2221,Rheinland-Pfalz,Landkreis,Donnersbergkreis,49.6669591,7.9801167,0.020654044750430294,0.03700516351118761,0.0,0.9423407917383821,0.0,0.0,Frauenhaus,False,False,False,False
Frauenhaus Duisburg gGmbH,2203,Nordrhein-Westfalen,Kreisfreie Stadt,Duisburg,51.434999,6.759562,0.00774526678141136,0.028399311531841654,0.04130808950086059,0.8950086058519794,0.027538726333907058,0.0,Frauenhaus,False,True,False,False
Frauenhaus Düsseldorf,2419,Nordrhein-Westfalen,Kreisfreie Stadt,Düsseldorf,51.2418056,6.8082556,0.0,0.0,0.019793459552495698,0.9500860585197934,0.0008605851979345956,0.0,Frauenhaus,False,False,False,False
Frauenhaus EN,2073,Nordrhein-Westfalen,Kreis,Ennepe-Ruhr-Kreis,51.4438167,7.3417483,0.0025817555938037868,0.03270223752151463,0.0,0.9612736660929432,0.0034423407917383822,0.0,Frauenhaus,False,False,False,False
Frauenhaus Eisenach,2105,Thüringen,Kreisfreie Stadt,Eisenach,50.990688888944,10.304182716389,0.0,0.0,0.3373493975903614,0.2314974182444062,0.0,0.43115318416523235,Frauenhaus,False,False,False,False
Frauenhaus Emden,2088,Niedersachsen,Kreisfreie Stadt,Emden,53.366076745762,7.207059748026,0.0,0.0,0.0,0.0,0.0,1.0,Frauenhaus,False,False,False,False
Frauenhaus Erbach,2261,Hessen,Landkreis,Odenwaldkreis,49.653690533425,8.995164437466,0.0,0.013769363166953529,0.012908777969018933,0.9733218588640276,0.0,0.0,Frauenhaus,True,False,False,False
Frauenhaus Erding,2362,Bayern,Landkreis,Erding,48.304271224419,11.90594429271,0.012908777969018933,0.24440619621342513,0.0189328743545611,0.648881239242685,0.07487091222030981,0.0,Frauenhaus,False,True,False,False
Frauenhaus Erfurt,2149,Thüringen,Kreisfreie Stadt,Erfurt,50.97579155,11.020273533775,0.0,0.0,0.055077452667814115,0.9449225473321858,0.0,0.0,Frauenhaus,False,False,False,False
Frauenhaus Espelkamp,2184,Nordrhein-Westfalen,Kreis,Minden-Lübbecke,52.375750324544,8.632890486707,0.0017211703958691911,0.11703958691910499,0.22375215146299485,0.5240963855421686,0.1333907056798623,0.0,Frauenhaus,True,False,False,False
Frauenhaus Essen,2143,Nordrhein-Westfalen,Kreisfreie Stadt,Essen,51.438379602305,7.009099068551,0.0051635111876075735,0.00774526678141136,0.0,0.9862306368330465,0.0008605851979345956,0.0,Frauenhaus,True,True,False,False
Frauenhaus Esslingen,2065,Baden-Württemberg,Landkreis,Esslingen,48.741421196937,9.310220283594,0.013769363166953529,0.06712564543889846,0.0,0.9182444061962134,0.0008605851979345956,0.0,Frauenhaus,False,False,False,False
Frauenhaus FFB,2116,Bayern,Landkreis,Fürstenfeldbruck,48.1717756,11.2623294,0.0,0.0,0.0,0.0,0.0,1.0,Frauenhaus,True,False,False,False
Frauenhaus Flensburg,2255,Schleswig-Holstein,Kreisfreie Stadt,Flensburg,54.79485029629,9.423378659978,0.0025817555938037868,0.0008605851979345956,0.0,0.9965576592082617,0.0,0.0,Frauenhaus,False,False,False,False
Frauenhaus Frankenthal,2123,Rheinland-Pfalz,Kreisfreie Stadt,Frankenthal (Pfalz),49.5377072,8.3560768,0.0,0.006024096385542169,0.0,0.9905335628227194,0.0034423407917383822,0.0,Frauenhaus,True,False,False,False
Frauenhaus Frankfurt (Oder),2248,Brandenburg,Kreisfreie Stadt,Frankfurt (Oder),52.343312285202,14.546619410747,0.07487091222030981,0.0,0.0,0.9251290877796902,0.0,0.0,Frauenhaus,False,False,False,False
Frauenhaus Freising,2422,Bayern,Landkreis,Freising,48.399763713312,11.735230175261,0.039586919104991396,0.0,0.01549053356282272,0.18760757314974183,0.0,0.6910499139414802,Frauenhaus,False,False,False,False
Frauenhaus Freudenstadt,2215,Baden-Württemberg,Landkreis,Freudenstadt,48.473534333796,8.420503660913,0.0,0.012908777969018933,0.02323580034423408,0.9328743545611016,0.0,0.03098106712564544,Frauenhaus,False,False,False,False
Frauenhaus Fulda,2294,Hessen,Landkreis,Fulda,50.555220369978,9.649742916617,0.0,0.0025817555938037868,0.0008605851979345956,0.995697074010327,0.0008605851979345956,0.0,Frauenhaus,False,False,False,False
Frauenhaus Fürstenwalde,2388,Brandenburg,Landkreis,Oder-Spree,52.358683193219,14.065068707361,0.0,0.0,0.0,0.0,0.0,1.0,Frauenhaus,False,False,False,False
Frauenhaus Fürth,2301,Bayern,Kreisfreie Stadt,Fürth,49.4668322,10.9852942,0.0,0.00946643717728055,0.0,0.9793459552495697,0.011187607573149742,0.0,Frauenhaus,False,False,False,False
Frauenhaus Gelsenkirchen,2112,Nordrhein-Westfalen,Kreisfreie Stadt,Gelsenkirchen,51.540968835085,7.111938609989,0.0,0.0008605851979345956,0.04130808950086059,0.9578313253012049,0.0,0.0,Frauenhaus,False,False,False,False
Frauenhaus Gera,2421,Thüringen,Kreisfreie Stadt,Gera,50.8772301,12.0796208,0.0,0.0,0.0,0.0,0.0,0.9698795180722891,Frauenhaus,False,False,False,False
Frauenhaus Gotha,2026,Thüringen,Landkreis,Gotha,50.943234424969,10.717486357956,0.0,0.21944922547332185,0.0,0.6746987951807228,0.0,0.10585197934595525,Frauenhaus,False,False,False,False
Frauenhaus Greifswald,2146,Mecklenburg-Vorpommern,Landkreis,Vorpommern-Greifswald,54.08939506011,13.379945601414,0.0008605851979345956,0.342512908777969,0.0,0.006024096385542169,0.1901893287435456,0.4604130808950086,Frauenhaus,False,False,False,False
Frauenhaus Gütersloh,2267,Nordrhein-Westfalen,Kreis,Gütersloh,51.9063997,8.3782078,0.0,0.0,0.04991394148020654,0.9500860585197934,0.0,0.0,Frauenhaus,False,False,False,False
Frauenhaus Hagar,2155,Bayern,Kreisfreie Stadt,Nürnberg,49.454987367495,11.078057924511,0.0,0.0,0.0,0.0,0.0,1.0,Frauenhaus,False,False,False,False
Frauenhaus Hameln e.V.,2113,Niedersachsen,Landkreis,Hameln-Pyrmont,52.105920892881,9.364572592101,0.011187607573149742,0.06368330464716007,0.10327022375215146,0.8218588640275387,0.0,0.0,Frauenhaus,True,False,False,False
Frauenhaus Hamm,2171,Nordrhein-Westfalen,Kreisfreie Stadt,Hamm,51.6697042432,7.831726274505,0.00774526678141136,0.1566265060240964,0.05163511187607573,0.7762478485370051,0.00774526678141136,0.0,Frauenhaus,False,False,False,False
Frauenhaus Hanau,2055,Hessen,Landkreis,Main-Kinzig-Kreis,50.121842157395,8.93035691488,0.011187607573149742,0.00946643717728055,0.0017211703958691911,0.9767641996557659,0.0008605851979345956,0.0,Frauenhaus,False,False,False,False
Frauenhaus Hannover - Frauen helfen Frauen e.V.,2013,Niedersachsen,Landkreis,Region Hannover,52.377210097868,9.745326084829,0.0,0.03356282271944923,0.0,0.9664371772805508,0.0,0.0,Frauenhaus,True,False,False,False
Frauenhaus Hartengrube,2284,Schleswig-Holstein,Kreisfreie Stadt,Lübeck,53.861924849136,10.683346452091,0.0,0.0008605851979345956,0.0,0.9991394148020654,0.0,0.0,Frauenhaus,False,False,False,False
Frauenhaus Herford,2033,Nordrhein-Westfalen,Kreis,Herford,52.1196393,8.6637749,0.0051635111876075735,0.0025817555938037868,0.013769363166953529,0.963855421686747,0.014629948364888123,0.0,Frauenhaus,False,False,False,False
Frauenhaus Herne,2032,Nordrhein-Westfalen,Kreisfreie Stadt,Herne,51.5435523,7.2176455,0.02667814113597246,0.022375215146299483,0.020654044750430294,0.9208261617900172,0.00946643717728055,0.0,Frauenhaus,True,False,False,False
Frauenhaus Herten,2157,Nordrhein-Westfalen,Kreisfreie Stadt,Gelsenkirchen,51.572645954604,7.131574084656,0.0,0.0,0.1566265060240964,0.8433734939759037,0.0,0.0,Frauenhaus,False,False,False,False
Frauenhaus Hildesheim e.V.,2194,Niedersachsen,Landkreis,Hildesheim,52.152522919656,9.950775478638,0.12134251290877797,0.16609294320137694,0.0,0.6962134251290878,0.016351118760757316,0.0,Frauenhaus,True,False,False,False
Frauenhaus Hochfranken,2119,Bayern,Landkreis,Wunsiedel i. Fichtelgebirge,50.162945060814,12.134807622047,0.0,0.0,0.806368330464716,0.18502581755593803,0.008605851979345954,0.0,Frauenhaus,False,False,False,False
Frauenhaus Idar-Oberstein,2183,Rheinland-Pfalz,Landkreis,Birkenfeld,49.699458006547,7.321442009631,0.12650602409638553,0.022375215146299483,0.011187607573149742,0.8399311531841652,0.0,0.0,Frauenhaus,False,False,False,False
Frauenhaus Kassel,2165,Hessen,Kreisfreie Stadt,Kassel,51.273161334306,9.466445816736,0.0,0.0,0.05335628227194492,0.9466437177280551,0.0,0.0,Frauenhaus,True,True,False,False
Frauenhaus Kirchheim,2173,Baden-Württemberg,Landkreis,Esslingen,48.645195802054,9.452899259968,0.0025817555938037868,0.09380378657487091,0.0,0.9036144578313253,0.0,0.0,Frauenhaus,True,False,False,False
Frauenhaus Koblenz,2413,Rheinland-Pfalz,Kreisfreie Stadt,Koblenz,50.350559513859,7.592017311078,0.0017211703958691911,0.0,0.0025817555938037868,0.9810671256454389,0.0025817555938037868,0.0,Frauenhaus,False,False,False,False
Frauenhaus Köthen,2161,Sachsen-Anhalt,Landkreis,Anhalt-Bitterfeld,51.75046975,11.988520313845,0.0,0.02323580034423408,0.0981067125645439,0.01721170395869191,0.0,0.8614457831325302,Frauenhaus,False,False,False,False
Frauenhaus Landau,2332,Rheinland-Pfalz,Kreisfreie Stadt,Landau in der Pfalz,49.19988782812,8.113401055813,0.0,0.018072289156626505,0.03614457831325301,0.9457831325301205,0.0,0.0,Frauenhaus,False,False,False,False
Frauenhaus Lauchhammer,2346,Brandenburg,Landkreis,Oberspreewald-Lausitz,51.4957085,13.7605753,0.2882960413080895,0.4827882960413081,0.0,0.012908777969018933,0.0,0.21600688468158347,Frauenhaus,False,False,False,False
Frauenhaus Lila Villa e.V.,2409,Rheinland-Pfalz,Landkreis,Bad Dürkheim,49.4612447,8.1705981,0.03700516351118761,0.016351118760757316,0.0,0.9345955249569707,0.0,0.0,Frauenhaus,False,False,False,False
Frauenhaus Lippe,2238,Nordrhein-Westfalen,Kreis,Lippe,51.938132853507,8.87196878474,0.06110154905335628,0.039586919104991396,0.021514629948364887,0.8605851979345955,0.01721170395869191,0.0,Frauenhaus,False,False,False,False
Frauenhaus Ludwigsburg,2223,Baden-Württemberg,Landkreis,Ludwigsburg,48.905138982478,9.175657488432,0.11703958691910499,0.06196213425129088,0.0,0.8184165232358004,0.0025817555938037868,0.0,Frauenhaus,True,True,True,False
Frauenhaus Ludwigshafen,2415,Rheinland-Pfalz,Kreisfreie Stadt,Ludwigshafen am Rhein,49.479714236326,8.449962862506,0.0,0.0025817555938037868,0.0,0.9733218588640276,0.0,0.012048192771084338,Frauenhaus,False,False,False,False
Frauenhaus Lüchow,2371,Niedersachsen,Landkreis,Lüchow-Dannenberg,52.969714748761,11.15518272981,0.0,0.0,0.0,0.0,0.0,1.0,Frauenhaus,False,False,False,False
Frauenhaus Mainz,2411,Rheinland-Pfalz,Kreisfreie Stadt,Mainz,49.986824590308,8.271431806591,0.0034423407917383822,0.0,0.0,0.9845094664371773,0.0,0.0,Frauenhaus,False,False,False,False
Frauenhaus Mayen-Koblenz,2426,Rheinland-Pfalz,Landkreis,Mayen-Koblenz,50.325712347282,7.2284572929,0.0008605851979345956,0.006024096385542169,0.07228915662650602,0.7934595524956971,0.027538726333907058,0.0,Frauenhaus,True,False,True,False
Frauenhaus Meiningen,2057,Thüringen,Landkreis,Schmalkalden-Meiningen,50.565930470512,10.408470644478,0.0,0.0,0.2874354561101549,0.4053356282271945,0.0,0.3072289156626506,Frauenhaus,False,False,False,False
Frauenhaus Mönchengladbach,2337,Nordrhein-Westfalen,Kreisfreie Stadt,Mönchengladbach,51.201782299521,6.421618467145,0.010327022375215147,0.0034423407917383822,0.04044750430292599,0.9457831325301205,0.0,0.0,Frauenhaus,False,False,False,False
Frauenhaus München,2387,Bayern,Kreisfreie Stadt,München,48.1371079,11.5753822,0.0,0.0,0.0,0.0,0.0,1.0,Frauenhaus,False,False,False,False
Frauenhaus Neunkirchen,2010,Saarland,Landkreis,Neunkirchen,49.37167025,7.207534594691,0.0,0.010327022375215147,0.2943201376936317,0.6953528399311532,0.0,0.0,Frauenhaus,False,False,False,False
Frauenhaus Neuruppin,2340,Brandenburg,Landkreis,Ostprignitz-Ruppin,52.920470743076,12.805888514342,0.0,0.0,0.0,0.0,0.0,0.9939759036144579,Frauenhaus,False,False,True,False
Frauenhaus Neustadt,2201,Rheinland-Pfalz,Kreisfreie Stadt,Neustadt an der Weinstraße,49.349491832835,8.141965744074,0.0,0.008605851979345954,0.0,0.9793459552495697,0.012048192771084338,0.0,Frauenhaus,False,False,False,False
Frauenhaus Norderstedt,2303,Schleswig-Holstein,Kreis,Segeberg,53.7089898,9.9891914,0.0,0.04216867469879518,0.00946643717728055,0.5275387263339071,0.008605851979345954,0.41222030981067126,Frauenhaus,True,False,False,False
Frauenhaus Nürnberg,2147,Bayern,Kreisfreie Stadt,Nürnberg,49.454987367495,11.078057924511,0.03356282271944923,0.12134251290877797,0.0,0.8356282271944923,0.00946643717728055,0.0,Frauenhaus,False,False,False,False
Frauenhaus Oberhausen,2134,Nordrhein-Westfalen,Kreisfreie Stadt,Oberhausen,51.466433645076,6.858153386625,0.0,0.0,0.0,1.0,0.0,0.0,Frauenhaus,False,False,False,False
Frauenhaus Oberursel,2214,Hessen,Landkreis,Hochtaunuskreis,50.203012037124,8.578525319621999,0.00946643717728055,0.0008605851979345956,0.0387263339070568,0.9259896729776248,0.02495697074010327,0.0,Frauenhaus,True,False,False,False
Frauenhaus Olpe,2047,Nordrhein-Westfalen,Kreis,Olpe,51.030930004953,7.855977750318,0.02667814113597246,0.0,0.12478485370051635,0.8459552495697074,0.0025817555938037868,0.0,Frauenhaus,False,False,False,False
Frauenhaus Ortenau,2235,Baden-Württemberg,Landkreis,Ortenaukreis,48.472922532591,7.96749836209,0.0,0.03442340791738382,0.0,0.0,0.0,0.9655765920826161,Frauenhaus,True,False,False,False
Frauenhaus Ostholstein,2189,Schleswig-Holstein,Kreis,Ostholstein,54.119768481237,10.631741869357,0.0051635111876075735,0.019793459552495698,0.0,0.9225473321858864,0.008605851979345954,0.04388984509466437,Frauenhaus,True,False,False,False
Frauenhaus Paderborn,2023,Nordrhein-Westfalen,Kreis,Paderborn,51.711630197753,8.754784819168,0.0,0.006024096385542169,0.04991394148020654,0.9225473321858864,0.021514629948364887,0.0,Frauenhaus,False,False,False,False
Frauenhaus Passau,2125,Bayern,Kreisfreie Stadt,Passau,48.57363833286,13.451816048151,0.0,0.5223752151462995,0.0017211703958691911,0.0,0.0,0.4750430292598967,Frauenhaus,True,False,False,False
Frauenhaus Pinneberg,2264,Schleswig-Holstein,Kreis,Pinneberg,53.651379970069,9.789546578719,0.0,0.0025817555938037868,0.0,0.9974182444061962,0.0,0.0,Frauenhaus,False,False,False,False
Frauenhaus Pirmasens,2417,Rheinland-Pfalz,Kreisfreie Stadt,Pirmasens,49.206297144295,7.5975454991269995,0.02323580034423408,0.0,0.13941480206540446,0.8089500860585198,0.004302925989672977,0.0,Frauenhaus,False,False,False,False
Frauenhaus Potsdam,2298,Brandenburg,Kreisfreie Stadt,Potsdam,52.401823067332,13.060633141753,0.0,0.0,0.0,0.0,0.0,1.0,Frauenhaus,False,False,False,False
Frauenhaus Recklinghausen e.V.,2380,Nordrhein-Westfalen,Kreis,Recklinghausen,51.562289600477,7.197057131299,0.0,0.00774526678141136,0.01549053356282272,0.9767641996557659,0.0,0.0,Frauenhaus,False,False,False,False
Frauenhaus Remscheid,2356,Nordrhein-Westfalen,Kreis,Rheinisch-Bergischer Kreis,51.1463909,7.2148641,0.0034423407917383822,0.0051635111876075735,0.011187607573149742,0.9750430292598967,0.0051635111876075735,0.0,Frauenhaus,True,False,True,False
Frauenhaus Rendsburg gGmbH,2191,Schleswig-Holstein,Kreis,Rendsburg-Eckernförde,54.308288610642,9.658791079076,0.08175559380378658,0.09122203098106713,0.0,0.7641996557659209,0.04819277108433735,0.014629948364888123,Frauenhaus,True,False,False,False
Frauenhaus Reutlingen,2245,Baden-Württemberg,Landkreis,Reutlingen,48.490244306328,9.22265822019,0.0,0.0,0.0,0.0,0.0,1.0,Frauenhaus,False,False,False,False
Frauenhaus Rhein - Erftkreis e.V.,2076,Nordrhein-Westfalen,Kreis,Rhein-Erft-Kreis,50.8072763,6.8330117999999995,0.004302925989672977,0.0025817555938037868,0.08003442340791739,0.9130808950086059,0.0,0.0,Frauenhaus,False,False,False,False
Frauenhaus Rheine,2313,Nordrhein-Westfalen,Kreis,Steinfurt,52.275648335048,7.43452908728,0.008605851979345954,0.0,0.09122203098106713,0.8743545611015491,0.025817555938037865,0.0,Frauenhaus,False,False,False,False
Frauenhaus Rodgau,2166,Hessen,Landkreis,Offenbach,50.021737483593,8.882036802864,0.0,0.011187607573149742,0.0,0.9870912220309811,0.0017211703958691911,0.0,Frauenhaus,False,False,False,False
Frauenhaus Rosenheim/Traunstein,2269,Bayern,Kreisfreie Stadt,Rosenheim,47.8571272,12.1181047,0.04130808950086059,0.4242685025817556,0.13769363166953527,0.3958691910499139,0.0,0.0,Frauenhaus,False,False,False,False
Frauenhaus Saarbrücken,2009,Saarland,Landkreis,Regionalverband Saarbrücken,49.234338155586,6.986639524139,0.0,0.0,0.1351118760757315,0.8648881239242685,0.0,0.0,Frauenhaus,False,False,False,False
Frauenhaus Saarlouis,2217,Saarland,Landkreis,Saarlouis,49.319469368893,6.753084518304,0.0,0.0,0.18330464716006883,0.8166953528399311,0.0,0.0,Frauenhaus,False,False,False,False
Frauenhaus Salzgitter,2128,Niedersachsen,Kreisfreie Stadt,Salzgitter,52.159624591925,10.331093344387,0.15060240963855423,0.1962134251290878,0.0,0.03270223752151463,0.021514629948364887,0.5989672977624785,Frauenhaus,False,False,False,False
Frauenhaus Schwabach,2177,Bayern,Kreisfreie Stadt,Schwabach,49.329349195087,11.024939052197,0.0,0.0,0.0,0.9991394148020654,0.0,0.0,Frauenhaus,True,False,False,False
Frauenhaus Schwarzenbek,2263,Schleswig-Holstein,Kreis,Herzogtum Lauenburg,53.503650426025,10.483866451312,0.0,0.0,0.0,1.0,0.0,0.0,Frauenhaus,False,False,False,False
Frauenhaus Schwedt,2079,Brandenburg,Landkreis,Uckermark,53.072867194575,14.277710475059,0.0,0.24096385542168675,0.0,0.0,0.0,0.7590361445783133,Frauenhaus,True,False,False,False
Frauenhaus Siegen,2154,Nordrhein-Westfalen,Kreis,Siegen-Wittgenstein,50.8759626,8.0164616,0.0,0.022375215146299483,0.04475043029259897,0.9302925989672978,0.0025817555938037868,0.0,Frauenhaus,False,False,False,False
Frauenhaus Singen,2237,Baden-Württemberg,Landkreis,Konstanz,47.762044359329,8.853405053013,0.0,0.0,0.0981067125645439,0.9018932874354562,0.0,0.0,Frauenhaus,False,False,False,False
Frauenhaus SkF,2117,Bayern,Kreisfreie Stadt,Würzburg,49.7646014,9.9055338,0.0,0.0,0.0,1.0,0.0,0.0,Frauenhaus,True,False,False,False
Frauenhaus SkF Karlsruhe,2212,Baden-Württemberg,Stadtkreis,Karlsruhe,49.010942043401,8.392288331104,0.01549053356282272,0.25645438898450945,0.025817555938037865,0.6686746987951807,0.0025817555938037868,0.03098106712564544,Frauenhaus,False,False,False,False
Frauenhaus Soest,2144,Nordrhein-Westfalen,Kreis,Soest,51.565331935758,8.097908720838,0.0,0.021514629948364887,0.10499139414802065,0.8657487091222031,0.00774526678141136,0.0,Frauenhaus,False,False,False,False
Frauenhaus Sondershausen,2038,Thüringen,Landkreis,Kyffhäuserkreis,51.3700633,10.8491714,0.09552495697074011,0.07314974182444062,0.5129087779690189,0.15834767641996558,0.02495697074010327,0.1351118760757315,Frauenhaus,False,False,False,False
Frauenhaus Sozialdienst katholischer Frauen e.V.,2247,Hessen,Landkreis,Gießen,50.572063246443,8.667524534963,0.0068846815834767644,0.04819277108433735,0.02667814113597246,0.9182444061962134,0.0,0.0,Frauenhaus,False,False,False,False
Frauenhaus Speyer,2174,Rheinland-Pfalz,Kreisfreie Stadt,Speyer,49.322620194502,8.429573035315,0.02495697074010327,0.011187607573149742,0.00946643717728055,0.9311531841652324,0.02323580034423408,0.0,Frauenhaus,False,False,False,False
Frauenhaus Stendal,2028,Sachsen-Anhalt,Landkreis,Stendal,52.605557128017,11.847668159234999,0.0,0.0,0.016351118760757316,0.0,0.0,0.9836488812392427,Frauenhaus,False,False,False,False
Frauenhaus Stormarn,2343,Schleswig-Holstein,Kreis,Stormarn,53.674312919727,10.231099789877,0.031841652323580036,0.05421686746987952,0.0,0.8528399311531841,0.010327022375215147,0.04647160068846816,Frauenhaus,False,False,False,False
Frauenhaus Straubing,2108,Bayern,Kreisfreie Stadt,Straubing,48.8777333,12.5801539,0.0,0.03270223752151463,0.0008605851979345956,0.7564543889845095,0.0,0.20912220309810672,Frauenhaus,True,False,False,False
Frauenhaus Telgte,2133,Nordrhein-Westfalen,Kreis,Warendorf,51.984441708803,7.788351593569,0.0,0.0,0.05938037865748709,0.9397590361445783,0.0008605851979345956,0.0,Frauenhaus,False,False,False,False
Frauenhaus Ulm,2230,Baden-Württemberg,Stadtkreis,Ulm,48.402932597842,9.999279928912,0.0,0.0,0.06282271944922548,0.8012048192771084,0.0,0.1359724612736661,Frauenhaus,False,False,False,False
Frauenhaus Unna,2233,Nordrhein-Westfalen,Kreis,Unna,51.55022541813,7.691389709733,0.0,0.0,0.00774526678141136,0.9905335628227194,0.0017211703958691911,0.0,Frauenhaus,True,False,False,False
Frauenhaus Warendorf,2074,Nordrhein-Westfalen,Kreis,Warendorf,51.9501568,7.9840382,0.0034423407917383822,0.0068846815834767644,0.025817555938037865,0.9569707401032702,0.0068846815834767644,0.0,Frauenhaus,False,False,False,False
Frauenhaus Weiden,2071,Bayern,Kreisfreie Stadt,Weiden i.d. OPf.,49.677827673914,12.154750706237,0.10757314974182444,0.18760757314974183,0.0,0.6265060240963856,0.0783132530120482,0.0,Frauenhaus,True,False,True,False
Frauenhaus Weimar,2292,Thüringen,Kreisfreie Stadt,Weimar,50.982827330819,11.322555165749,0.0,0.0,0.48623063683304646,0.15060240963855423,0.0,0.36316695352839934,Schutzwohnung,False,False,False,False
Frauenhaus Weißenfels,2168,Sachsen-Anhalt,Landkreis,Burgenlandkreis,51.2046563,11.9710163,0.0,0.0,0.0,0.0,0.0,1.0,Frauenhaus,False,False,False,False
Frauenhaus Westerwald,2416,Rheinland-Pfalz,Landkreis,Westerwaldkreis,50.66442060915,7.821671710156,0.0,0.05421686746987952,0.0,0.9165232358003442,0.0,0.0,Frauenhaus,False,False,False,False
Frauenhaus Wetterau,2059,Hessen,Landkreis,Wetteraukreis,50.332736759446,8.762147100409,0.04819277108433735,0.1144578313253012,0.0,0.8373493975903614,0.0,0.0,Frauenhaus,False,True,False,False
Frauenhaus Wetzlar e.V.,2208,Hessen,Landkreis,Lahn-Dill-Kreis,50.559625165351,8.499134628186,0.0008605851979345956,0.035283993115318414,0.0025817555938037868,0.9586919104991394,0.0025817555938037868,0.0,Frauenhaus,False,False,False,False
Frauenhaus Worms,2410,Rheinland-Pfalz,Kreisfreie Stadt,Worms,49.6238729,8.359877471689,0.0008605851979345956,0.024096385542168676,0.008605851979345954,0.882960413080895,0.07142857142857142,0.0,Frauenhaus,False,False,False,False
Frauenhaus Zollernalbkreis,2046,Baden-Württemberg,Landkreis,Zollernalbkreis,48.269484562955,8.94737584922,0.0,0.12822719449225473,0.010327022375215147,0.7848537005163512,0.076592082616179,0.0,Frauenhaus,False,False,False,False
Frauenhaus der Frauenhilfe München,2348,Bayern,Kreisfreie Stadt,München,48.1351253,11.5819805,0.0,0.0034423407917383822,0.1962134251290878,0.6643717728055077,0.1359724612736661,0.0,Frauenhaus,True,True,False,False
Frauenhaus des Caritasverbandes für Stadt und Landkreis Gifhorn,2285,Niedersachsen,Landkreis,Gifhorn,52.484496766686,10.540274633294,0.0,0.5481927710843374,0.0,0.2908777969018933,0.16092943201376936,0.0,Frauenhaus,False,False,False,False
Frauenhaus des Rhein-Sieg-Kreises,2228,Nordrhein-Westfalen,Kreis,Rhein-Sieg-Kreis,50.749009526955,7.221746527917,0.019793459552495698,0.011187607573149742,0.020654044750430294,0.9483648881239243,0.0,0.0,Frauenhaus,False,False,False,False
Frauenhaus e.V. Solingen,2110,Nordrhein-Westfalen,Kreis,Mettmann,51.1238982,6.978047,0.02323580034423408,0.018072289156626505,0.0,0.9586919104991394,0.0,0.0,Frauenhaus,True,False,False,False
Frauenhaus für die Region Main-Rhön in Schweinfurt,2054,Bayern,Kreisfreie Stadt,Schweinfurt,50.04723375,10.224025804585,0.0,0.0,0.0,1.0,0.0,0.0,Frauenhaus,False,False,False,False
Frauenhaus im Landkreis Calw,2100,Baden-Württemberg,Landkreis,Calw,48.714306559169,8.741623063857,0.0025817555938037868,0.11790017211703958,0.0008605851979345956,0.02323580034423408,0.0,0.8554216867469879,Frauenhaus,False,False,False,False
Frauenhaus im Landkreis Kassel,2035,Hessen,Landkreis,Kassel,51.2550775,9.4119007,0.0,0.00946643717728055,0.0008605851979345956,0.9896729776247849,0.0,0.0,Frauenhaus,True,False,False,False
Frauenhaus im Landkreis Schwandorf,2195,Bayern,Landkreis,Schwandorf,49.3263177,12.1038045,0.0,0.0,0.09982788296041308,0.14543889845094665,0.0,0.7547332185886403,Frauenhaus,False,False,False,False
Frauenhaus und Beratungsstelle,2139,Brandenburg,Landkreis,Oder-Spree,52.1448863,14.6294413,0.0,0.0,0.050774526678141134,0.9492254733218589,0.0,0.0,Frauenhaus,False,False,False,False
"Frauenhaus, Beratungs- und Interventionsstelle Limburg",2036,Hessen,Landkreis,Limburg-Weilburg,50.387426446735,8.064561329702,0.0025817555938037868,0.0576592082616179,0.03614457831325301,0.9001721170395869,0.0034423407917383822,0.0,Frauenhaus,False,False,False,False
Frauenhäuser Geschütztes Wohnen,2327,Baden-Württemberg,Landkreis,Karlsruhe,49.104470848914,8.5913541328,0.0,0.1944922547332186,0.0,0.32358003442340794,0.0,0.4819277108433735,Frauenhaus,True,False,False,False
Frauennotruf Hochfranken,2135,Bayern,Kreisfreie Stadt,Hof,50.318924920653,11.923855529507,0.0,0.028399311531841654,0.0068846815834767644,0.963855421686747,0.0,0.0,Schutzwohnung,False,False,False,False
Frauenschutz Weimarer Land,2062,Thüringen,Landkreis,Weimarer Land,51.020381404684,11.4986504232,0.0,0.0,0.0,1.0,0.0,0.0,Frauenhaus,False,False,False,False
FrauenschutzHaus Wolfenbüttel,2306,Niedersachsen,Landkreis,Wolfenbüttel,52.1625283,10.5348215,0.0,0.0,0.0,0.0,0.0,1.0,Frauenhaus,True,False,False,False
Frauenschutzangebot,2210,Sachsen,Landkreis,Erzgebirgskreis,50.4756535,12.7667543,0.0,0.5137693631669535,0.0,0.0,0.0,0.48623063683304646,Schutzwohnung,False,False,False,False
Frauenschutzeinrichtung Zwickau Stadt,2044,Sachsen,Landkreis,Zwickau,50.726853592716,12.490858252887,0.0,0.0,0.0,1.0,0.0,0.0,Schutzwohnung,False,False,False,False
Frauenschutzhaus,2132,Mecklenburg-Vorpommern,Landkreis,Nordwestmecklenburg,53.8965859,11.4695121,0.02667814113597246,0.11273666092943202,0.0025817555938037868,0.8209982788296041,0.0,0.030120481927710843,Frauenhaus,False,False,False,False
Frauenschutzhaus,2219,Mecklenburg-Vorpommern,Landkreis,Rostock,53.793364322518,12.181076883324,0.0,0.0,0.1729776247848537,0.8270223752151463,0.0,0.0,Frauenhaus,False,False,False,False
Frauenschutzhaus,2310,Sachsen-Anhalt,Kreisfreie Stadt,Halle (Saale),51.4825041,11.9705452,0.0,0.0,0.0,0.0,0.0,1.0,Frauenhaus,False,False,False,False
Frauenschutzhaus Dresden,2087,Sachsen,Kreisfreie Stadt,Dresden,51.0504088,13.7372621,0.0,0.0,0.0,0.0,0.0,1.0,Frauenhaus,False,False,False,False
Frauenschutzhaus Freiberg,2083,Sachsen,Landkreis,Mittelsachsen,50.895481287937,13.333490439612,0.0,0.0,0.6273666092943201,0.37263339070567986,0.0,0.0,Frauenhaus,False,False,False,False
Frauenschutzhaus Helmstedt,2290,Niedersachsen,Landkreis,Helmstedt,52.232426476168,11.004057698082,0.0,0.0025817555938037868,0.7839931153184165,0.2134251290877797,0.0,0.0,Frauenhaus,True,False,False,False
Frauenschutzhaus Magdeburg,2031,Sachsen-Anhalt,Kreisfreie Stadt,Magdeburg,52.109112469784,11.635762688513,0.0,0.0,0.0,0.0,0.0,1.0,Frauenhaus,True,False,False,False
Frauenschutzhaus Wittenberg,2319,Sachsen-Anhalt,Landkreis,Wittenberg,51.869377514536,12.646353310986001,0.01721170395869191,0.34509466437177283,0.0,0.12994836488812392,0.03442340791738382,0.47332185886402756,Frauenhaus,False,False,False,False
Frauenschutzwohnung,2242,Thüringen,Landkreis,Unstrut-Hainich-Kreis,51.11064946722,10.643128194246,0.0,0.0,0.0,0.0,0.0,1.0,Schutzwohnung,False,False,False,False
Frauenschutzwohnung Altenburg,2276,Thüringen,Landkreis,Altenburger Land,50.9888921,12.429075,0.0,0.0,0.5972461273666093,0.4027538726333907,0.0,0.0,Schutzwohnung,False,False,False,False
Frauenschutzwohnungen Landkreis Nordsachsen,2042,Sachsen,Landkreis,Nordsachsen,51.5628862,12.9909587,0.463855421686747,0.42857142857142855,0.0,0.0,0.0,0.10757314974182444,Schutzwohnung,False,False,False,False
Frauenschutzzentrum,2325,Nordrhein-Westfalen,Kreis,Minden-Lübbecke,52.292865585765,8.884828610875,0.024096385542168676,0.12048192771084337,0.0,0.8450946643717728,0.010327022375215147,0.0,Frauenhaus,False,False,False,False
Frauenzentrum Paula Panke e.V. - Zufluchtswohnung,2068,Berlin,Kreisfreie Stadt,Berlin,52.56961735,13.403536522993,0.0,0.0,0.0,0.0,0.0,1.0,Schutzwohnung,False,False,False,False
Frauenzimmer e.V.,2082,Berlin,Kreisfreie Stadt,Berlin,52.4836896,13.352822090579,0.0,0.0,0.0,0.0,0.0,1.0,Schutzwohnung,True,False,False,False
Frauenzuflucht Kaiserslautern,2236,Rheinland-Pfalz,Kreisfreie Stadt,Kaiserslautern,49.44167141989,7.76806020992,0.0025817555938037868,0.0,0.0,0.9974182444061962,0.0,0.0,Frauenhaus,False,False,False,False
Haus für Frauen in Not,2150,Hessen,Landkreis,Rheingau-Taunus-Kreis,50.142945932409,8.06664247563,0.02495697074010327,0.09294320137693632,0.0,0.8631669535283993,0.0189328743545611,0.0,Frauenhaus,False,False,False,False
Haus für Frauen in Not Wiesbaden,2158,Hessen,Kreisfreie Stadt,Wiesbaden,50.077813921273,8.236045029311,0.006024096385542169,0.0034423407917383822,0.0,0.9776247848537005,0.012908777969018933,0.0,Frauenhaus,False,False,False,False
Hestia Frauenhaus,2102,Berlin,Kreisfreie Stadt,Berlin,52.5034002,13.3386373,0.0,0.0,0.0,0.0,0.0,1.0,Frauenhaus,False,False,False,False
Hestia Zufluchtswohnungen Prenzlauer Berg,2096,Berlin,Kreisfreie Stadt,Berlin,52.5355509,13.425688849992,0.0,0.0,0.0,0.9010327022375215,0.09896729776247848,0.0,Schutzwohnung,False,False,False,False
Hestia-Zufluchtswohnungen Wedding,2051,Berlin,Kreisfreie Stadt,Berlin,52.54108405,13.389616050162,0.016351118760757316,0.03270223752151463,0.0,0.8812392426850258,0.06970740103270223,0.0,Schutzwohnung,False,False,False,False
Hilfe für Frauen in Not-Frauenhaus Bonn e.V.,2129,Nordrhein-Westfalen,Kreisfreie Stadt,Bonn,50.737581638095,7.101763519581,0.0017211703958691911,0.018072289156626505,0.016351118760757316,0.963855421686747,0.0,0.0,Frauenhaus,False,False,False,False
Internationales Frauenhaus,2328,Nordrhein-Westfalen,Kreisfreie Stadt,Düsseldorf,51.236733864852,6.792454779053,0.0,0.0,0.01549053356282272,0.9845094664371773,0.0,0.0,Frauenhaus,False,False,False,False
Jenaer Frauenhaus e.V.,2272,Thüringen,Kreisfreie Stadt,Jena,50.9463598,11.5977589,0.0,0.0,0.050774526678141134,0.9492254733218589,0.0,0.0,Frauenhaus,False,False,False,False
KARO e.V.,2266,Sachsen,Landkreis,Vogtlandkreis,50.4950632,12.1346523,0.0,0.4087779690189329,0.17986230636833048,0.4113597246127367,0.0,0.0,Frauenhaus,False,False,False,False
Kinder- und Frauenschutzwohnung der Stadt Wernigerode,2287,Sachsen-Anhalt,Landkreis,Harz,51.839931701364,10.783901991418,0.0,0.0,0.1514629948364888,0.22375215146299485,0.0,0.6247848537005164,Schutzwohnung,True,False,False,False
S.H.E. - Schutzhaus für geflüchtete Frauen,2029,Sachsen,Kreisfreie Stadt,Leipzig,51.324894093361,12.374329706113,0.0,0.11617900172117039,0.0,0.10327022375215146,0.7805507745266781,0.0,Schutzwohnung,False,False,False,False
Schutzhaus für Frauen und Kinder,2107,Nordrhein-Westfalen,Kreis,Euskirchen,50.616462856427,6.84026134715,0.06110154905335628,0.11876075731497418,0.012048192771084338,0.7951807228915663,0.012908777969018933,0.0,Frauenhaus,False,False,False,False
Schutzwohnung im Rhein-Neckar-Kreis,2271,Baden-Württemberg,Landkreis,Rhein-Neckar-Kreis,49.54620451729,8.649864854517,0.04475043029259897,0.0,0.0,0.8296041308089501,0.04130808950086059,0.06712564543889846,Schutzwohnung,False,False,False,False
Schutzwohnungen Nordfriesland,2438,Schleswig-Holstein,Kreis,Nordfriesland,54.6156443,8.9676337,0.0,0.0,0.04475043029259897,0.4819277108433735,0.00774526678141136,0.2908777969018933,Schutzwohnung,False,False,False,False
Sofortaufnahme für gewaltbetroffene Frauen und ihre Kinder - Frauenhaus24 Hannover,2011,Niedersachsen,Landkreis,Region Hannover,52.377057435404,9.736999308768,0.0,0.0,1.0,0.0,0.0,0.0,,True,False,False,False
Städtisches Frauenhaus Stuttgart,2197,Baden-Württemberg,Stadtkreis,Stuttgart,48.76986235,9.211651935853,0.043029259896729774,0.2495697074010327,0.0051635111876075735,0.5645438898450946,0.0,0.13769363166953527,Frauenhaus,False,False,False,False
Wolfsburger Frauenhaus,2383,Niedersachsen,Kreisfreie Stadt,Wolfsburg,52.421175871211,10.79371507002,0.0034423407917383822,0.07142857142857142,0.05335628227194492,0.7555938037865749,0.11617900172117039,0.0,Frauenhaus,False,False,False,False
Zentrale Sofortaufnahme der Frauen*- und Kinderschutzhäuser Leipzig,2056,Sachsen,Kreisfreie Stadt,Leipzig,51.3844702,12.3160085,0.0,0.0,0.0,0.0,0.0,1.0,,False,False,False,False
Zufluchtswohung Matilde,2060,Berlin,Kreisfreie Stadt,Berlin,52.53713195,13.610523076316,0.0,0.0,0.0,1.0,0.0,0.0,Schutzwohnung,False,False,False,False
offensiv´91 e.V. Frauenzufluchtswohnung,2037,Berlin,Kreisfreie Stadt,Berlin,52.45499615,13.514810051508,0.0,0.08089500860585198,0.0,0.49139414802065406,0.10499139414802065,0.3227194492254733,Schutzwohnung,False,False,False,False
Ökumenisches Frauenhaus Pforzheim,2204,Baden-Württemberg,Stadtkreis,Pforzheim,48.8667572,8.7531246,0.0,0.0378657487091222,0.05679862306368331,0.1884681583476764,0.0,0.7168674698795181,Frauenhaus,False,False,False,False
